PROPERTY_ID,SALE_PRICE,SALE_DATE,YEAR_BUILT,EFFECTIVE_YEAR_BUILT,LATITUDE,LONGITUDE,STATE,CITY,ZIP,CENSUS_TRACT,LIVING_SQFT,LOT_SQFT,BEDROOMS,FULL_BATHS,HALF_BATHS,GARAGE_SPACES,FIREPLACE_CODE,TOTAL_POPULATION_25PLUS,MALE_BACHELORS_DEGREE,FEMALE_BACHELORS_DEGREE,PCT_BACHELORS_DEGREE,TOTAL_POPULATION,NON_HISPANIC_WHITE_POPULATION,PCT_WHITE,MEDIAN_EARNINGS_TOTAL,MEDIAN_EARNINGS_MALE,MEDIAN_EARNINGS_FEMALE,MEDIAN_HOUSEHOLD_INCOME,MEDIAN_HOME_VALUE,MEDIAN_GROSS_RENT,OWNER_OCCUPIED_UNITS,RENTER_OCCUPIED_UNITS,PCT_OWNER_OCCUPIED,OCCUPIED_UNITS,VACANT_UNITS,MEDIAN_AGE,CIVILIAN_EMPLOYED,CIVILIAN_UNEMPLOYED,UNEMPLOYMENT_RATE,POPULATION_BELOW_POVERTY,POVERTY_RATE,COUNTY_NAME,COUNTY_FIPS,VOTES_GOP,VOTES_DEM,TOTAL_VOTES,PER_GOP,PER_DEM,PER_POINT_DIFF,DEM_MARGIN,REP_MARGIN,CC_LIST_ID
93992302,312000,2006-10-03,1956,1956,40.764438,-72.94535,ny,bellport,11713,159300,1544,10454,3,1,0,0,,,,,,,,,,,,,,,,,,,,,,,,,,Suffolk County,36103,381253,381021,771541,0.4941448348175923,0.4938441379006430,0.0003006969169492,-0.00615586209935697900,-0.00585516518240769600,
90427551,32000,2005-06-30,1900,1900,43.006112,-74.367799,ny,johnstown,12095,971200,2456,6098,4,2,0,2,,,,,,,,,,,,,,,,,,,,,,,,,,Fulton County,36035,15378,7931,23744,0.6476583557951483,0.3340212264150943,0.3136371293800539,-0.16597877358490570000,0.14765835579514830000,
90505687,610000,2021-12-17,2015,2015,42.195848,-74.134724,ny,tannersville,12485,080403,3419,6534,0,0,0,0,,,,,,,,,,,,,,,,,,,,,,,,,,Greene County,36039,14271,10346,25194,0.5664443915217909,0.4106533301579741,0.1557910613638168,-0.08934666984202588000,0.06644439152179094000,
92007152,58000,2015-09-11,2023,2023,43.180248,-78.782306,ny,lockport,14094,024303,2653,392040,2,2,0,5,,,,,,,,,,,,,,,,,,,,,,,,,,Niagara County,36063,56068,46029,104080,0.5387009992313605,0.4422463489623366,0.0964546502690238,-0.05775365103766339000,0.03870099923136050000,
93300346,992793,2018-12-13,2018,2018,40.5089,-74.2336,ny,staten island,10307,024401,3712,13135,0,0,4,0,,,,,,,,,,,,,,,,,,,,,,,,,,Richmond County,36085,123320,90997,216153,0.5705218063131208,0.4209842102584743,0.1495375960546464,-0.07901578974152568000,0.07052180631312077000,
93657671,38000,1997-08-19,1850,1850,42.525093,-76.736315,ny,trumansburg,14886,950100,1510,216493,3,1,0,0,,,,,,,,,,,,,,,,,,,,,,,,,,Schuyler County,36097,5621,3903,9766,0.5755682981773500,0.3996518533688306,0.1759164448085193,-0.10034814663116942000,0.07556829817735000000,
91728511,555000,2021-12-02,1960,1960,40.694507,-73.549275,ny,north bellmore,11710,408500,1220,7800,0,2,0,1,,,,,,,,,,,,,,,,,,,,,,,,,,Nassau County,36059,326716,396504,732756,0.4458728417099280,0.5411132764521888,-0.0952404347422607,0.04111327645218876000,-0.05412715829007197500,
91842763,9002135,2006-02-15,1935,1975,40.739446,-73.991507,ny,new york,10011,005400,14110,2600,0,0,0,0,,,,,,,,,,,,,,,,,,,,,,,,,,New York County,36061,85185,603040,694904,0.1225852779664529,0.8678033224733200,-0.7452180445068671,0.36780332247332004000,-0.37741472203354710000,
93152577,88000,2009-08-25,1971,1971,42.528673,-73.71465,ny,castleton on hudson,12033,052501,2080,13504,3,2,1,2,,,,,,,,,,,,,,,,,,,,,,,,,,Rensselaer County,36083,36500,40969,79409,0.4596456321071919,0.5159238877205354,-0.0562782556133435,0.01592388772053543500,-0.04035436789280811000,
93699600,144000,2025-01-13,1947,1947,42.161209,-77.065707,ny,corning,14830,962400,1080,9375,3,1,0,1,,,,,,,,,,,,,,,,,,,,,,,,,,Steuben County,36101,29474,15790,46178,0.6382693057300013,0.3419377192602538,0.2963315864697475,-0.15806228073974620000,0.13826930573000130000,
90434910,103000,2010-10-01,1900,1900,43.060005,-74.338643,ny,gloversville,12078,971100,2302,8200,5,3,1,2,,,,,,,,,,,,,,,,,,,,,,,,,,Fulton County,36035,15378,7931,23744,0.6476583557951483,0.3340212264150943,0.3136371293800539,-0.16597877358490570000,0.14765835579514830000,
91135555,47500,1994-11-10,1900,1900,43.158413,-77.556883,ny,rochester,14609,007600,1200,5740,4,1,0,1,,,,,,,,,,,,,,,,,,,,,,,,,,Monroe County,36055,145661,225746,380983,0.3823293952748547,0.5925356249491447,-0.2102062296742899,0.09253562494914469000,-0.11767060472514529000,
93179397,498000,2011-03-30,1950,1950,40.62634,-74.108719,ny,staten island,10310,012100,1320,4000,0,0,4,0,,,,,,,,,,,,,,,,,,,,,,,,,,Richmond County,36085,123320,90997,216153,0.5705218063131208,0.4209842102584743,0.1495375960546464,-0.07901578974152568000,0.07052180631312077000,
91783832,187250,1996-06-25,1959,1959,40.687528,-73.531779,ny,north bellmore,11710,414900,1612,6600,0,2,0,1,,,,,,,,,,,,,,,,,,,,,,,,,,Nassau County,36059,326716,396504,732756,0.4458728417099280,0.5411132764521888,-0.0952404347422607,0.04111327645218876000,-0.05412715829007197500,
92266612,129320,2019-12-19,1950,1990,43.03409,-76.431175,ny,elbridge,13060,012000,1488,17000,4,2,0,0,,,,,,,,,,,,,,,,,,,,,,,,,,Onondaga County,36067,90619,138894,234735,0.3860480967899972,0.5917055402901144,-0.2056574435001171,0.09170554029011435000,-0.11395190321000281000,
89172534,60005,1996-01-02,1970,1970,42.470891,-73.813406,ny,ravena,12143,014402,2480,18295,0,0,0,0,,,,,,,,,,,,,,,,,,,,,,,,,,Albany County,36001,51081,99474,154101,0.3314774076741877,0.6455117098526291,-0.3140343021784413,0.14551170985262907000,-0.16852259232581230000,
93617786,220000,2023-09-12,2002,2002,42.775946,-73.956565,ny,schenectady,12306,033003,1265,17424,2,2,0,1,1,,,,,,,,,,,,,,,,,,,,,,,,,Schenectady County,36093,30741,42465,74826,0.4108331328682543,0.5675166386015557,-0.1566835057333013,0.06751663860155566000,-0.08916686713174571000,
173451114,0,2025-03-21,2016,2016,40.747412,-73.971412,ny,new york,10016,008800,2181,32364,0,0,0,0,,,,,,,,,,,,,,,,,,,,,,,,,,New York County,36061,85185,603040,694904,0.1225852779664529,0.8678033224733200,-0.7452180445068671,0.36780332247332004000,-0.37741472203354710000,
92067484,85500,1996-06-28,1920,1920,43.070507,-75.602683,ny,sherrill,13461,024800,3189,0,4,3,0,4,,,,,,,,,,,,,,,,,,,,,,,,,,Oneida County,36065,57180,41567,100746,0.5675659579536656,0.4125920632084648,0.1549738947452007,-0.08740793679153519000,0.06756595795366560000,
93532703,295000,2004-05-14,1993,1993,42.824166,-73.793384,ny,clifton park,12065,062507,2500,20038,4,2,1,2,1,,,,,,,,,,,,,,,,,,,,,,,,,Saratoga County,36091,61305,68471,132655,0.4621386302815574,0.5161584561456409,-0.0540198258640834,0.01615845614564093000,-0.03786136971844262000,
94536624,95219,2000-04-12,1950,1950,41.990401,-73.979897,ny,lake katrine,12449,951300,988,82764,2,1,0,0,1,,,,,,,,,,,,,,,,,,,,,,,,,Ulster County,36111,37590,57970,97420,0.3858550605625128,0.5950523506466845,-0.2091972900841716,0.09505235064668449000,-0.11414493943748721000,
91867397,0,2002-05-14,,,40.773158,-73.981426,ny,new york,10023,014900,1507,0,0,0,0,0,,,,,,,,,,,,,,,,,,,,,,,,,,New York County,36061,85185,603040,694904,0.1225852779664529,0.8678033224733200,-0.7452180445068671,0.36780332247332004000,-0.37741472203354710000,
93351572,352540,1997-09-03,1997,1997,41.023666,-73.960843,ny,tappan,10983,013401,2782,16553,4,3,0,2,,,,,,,,,,,,,,,,,,,,,,,,,,Rockland County,36087,73186,75802,150369,0.4867093616370395,0.5041065645179525,-0.0173972028809130,0.00410656451795254900,-0.01329063836296051600,
94582847,50000,2016-11-04,1900,1975,43.7384,-74.049,ny,north river,12856,074000,1254,8712,3,1,0,2,,,,,,,,,,,,,,,,,,,,,,,,,,Warren County,36113,17699,17642,36131,0.4898563560377515,0.4882787633887797,0.0015775926489717,-0.01172123661122032000,-0.01014364396224848300,
93605025,60000,2021-04-22,1900,1970,42.785212,-73.964657,ny,schenectady,12306,033300,536,7405,1,1,0,1,,,,,,,,,,,,,,,,,,,,,,,,,,Schenectady County,36093,30741,42465,74826,0.4108331328682543,0.5675166386015557,-0.1566835057333013,0.06751663860155566000,-0.08916686713174571000,
90145237,453000,2021-04-05,1987,1987,43.021431,-78.705992,ny,east amherst,14051,009007,2821,14885,5,3,1,2,1,,,,,,,,,,,,,,,,,,,,,,,,,Erie County,36029,197527,267174,473021,0.4175861113988596,0.5648248175028170,-0.1472387061039573,0.06482481750281699000,-0.08241388860114040000,
156455648,9000,2016-01-04,2017,2017,43.407054,-75.484256,ny,ava,13303,024303,1200,65340,2,1,0,0,,,,,,,,,,,,,,,,,,,,,,,,,,Oneida County,36065,57180,41567,100746,0.5675659579536656,0.4125920632084648,0.1549738947452007,-0.08740793679153519000,0.06756595795366560000,
92691802,535000,2016-11-18,1965,1965,41.436644,-73.682517,ny,carmel,10512,011502,1247,20038,0,0,0,0,,,,,,,,,,,,,,,,,,,,,,,,,,Putnam County,36079,29283,24953,54989,0.5325246867555329,0.4537816654239939,0.0787430213315389,-0.04621833457600610400,0.03252468675553288000,
89542868,30000,2005-12-20,1872,1872,42.484434,-79.341582,ny,dunkirk,14048,035600,1615,6000,2,1,0,1,,,,,,,,,,,,,,,,,,,,,,,,,,Chautauqua County,36013,34853,23087,59304,0.5877006610009443,0.3892992041009038,0.1984014569000405,-0.11070079589909620000,0.08770066100094431000,
93508007,84333,2016-06-06,2017,2017,42.987327,-73.7567,ny,saratoga springs,12866,061905,2016,5227,3,2,0,1,,,,,,,,,,,,,,,,,,,,,,,,,,Saratoga County,36091,61305,68471,132655,0.4621386302815574,0.5161584561456409,-0.0540198258640834,0.01615845614564093000,-0.03786136971844262000,
90832092,1700000,2023-12-07,1931,1931,40.629818,-74.005085,ny,brooklyn,11219,021200,4740,1800,0,0,0,0,,,,,,,,,,,,,,,,,,,,,,,,,,Kings County,36047,202772,703310,913246,0.2220343697098043,0.7701210845708604,-0.5480867148610560,0.27012108457086037000,-0.27796563029019570000,
89911280,275000,2016-08-12,1955,2005,41.658143,-73.906012,ny,poughkeepsie,12603,140400,1772,30492,3,2,0,1,,,,,,,,,,,,,,,,,,,,,,,,,,Dutchess County,36027,66872,81443,151122,0.4425034078426701,0.5389221953123966,-0.0964187874697264,0.03892219531239660000,-0.05749659215732988400,
91150018,115000,2021-10-25,1948,1948,43.232995,-77.64918,ny,rochester,14616,013601,1356,5900,2,1,0,0,,,,,,,,,,,,,,,,,,,,,,,,,,Monroe County,36055,145661,225746,380983,0.3823293952748547,0.5925356249491447,-0.2102062296742899,0.09253562494914469000,-0.11767060472514529000,
91026055,68000,2020-05-19,1962,1962,42.835779,-77.700969,ny,lakeville,14480,030702,768,4143,2,1,0,0,,,,,,,,,,,,,,,,,,,,,,,,,,Livingston County,36051,18182,12477,31401,0.5790261456641508,0.3973440336295022,0.1816821120346485,-0.10265596637049779000,0.07902614566415078000,
92013529,60000,2025-07-25,1922,1922,43.08799,-79.036303,ny,niagara falls,14303,021700,1656,3920,3,1,1,2,,,,,,,,,,,,,,,,,,,,,,,,,,Niagara County,36063,56068,46029,104080,0.5387009992313605,0.4422463489623366,0.0964546502690238,-0.05775365103766339000,0.03870099923136050000,
91101882,31000,2002-10-02,1890,1890,43.175744,-77.56876,ny,rochester,14609,005400,2307,9713,4,3,0,3,1,,,,,,,,,,,,,,,,,,,,,,,,,Monroe County,36055,145661,225746,380983,0.3823293952748547,0.5925356249491447,-0.2102062296742899,0.09253562494914469000,-0.11767060472514529000,
93189401,340000,2009-07-28,1960,1960,40.609099,-74.084291,ny,staten island,10304,004004,2474,4200,0,0,4,0,,,,,,,,,,,,,,,,,,,,,,,,,,Richmond County,36085,123320,90997,216153,0.5705218063131208,0.4209842102584743,0.1495375960546464,-0.07901578974152568000,0.07052180631312077000,
169751380,9000,2020-08-12,2021,2021,42.7155,-78.346255,ny,varysburg,14167,970400,1725,90605,3,2,0,1,,,,,,,,,,,,,,,,,,,,,,,,,,Wyoming County,36121,13898,5073,19399,0.7164286818908191,0.2615083251714006,0.4549203567194185,-0.23849167482859940000,0.21642868189081910000,
90624990,35000,2000-06-27,1870,1870,44.178089,-75.780505,ny,theresa,13691,060700,2220,457380,4,1,0,0,,,,,,,,,,,,,,,,,,,,,,,,,,Jefferson County,36045,25629,17307,43848,0.5844964422550629,0.3947044334975369,0.1897920087575260,-0.10529556650246308000,0.08449644225506292000,
91580243,405000,2005-06-23,1953,1953,40.747521,-73.517139,ny,hicksville,11801,519200,1419,6000,0,1,0,1,,,,,,,,,,,,,,,,,,,,,,,,,,Nassau County,36059,326716,396504,732756,0.4458728417099280,0.5411132764521888,-0.0952404347422607,0.04111327645218876000,-0.05412715829007197500,
92549000,13024,2000-06-26,1994,1994,41.298284,-74.295338,ny,warwick,10990,014700,1392,4500,3,2,1,0,,,,,,,,,,,,,,,,,,,,,,,,,,Orange County,36071,84996,84684,172099,0.4938785234080384,0.4920656133969401,0.0018129100110982,-0.00793438660305989500,-0.00612147659196160500,
93090328,138000,1997-10-21,1910,1910,40.664498,-73.764582,ny,springfield gardens,11413,032000,1826,4000,0,0,0,0,,,,,,,,,,,,,,,,,,,,,,,,,,Queens County,36081,212665,569038,787860,0.2699273982687279,0.7222577615312366,-0.4523303632625086,0.22225776153123655000,-0.23007260173127210000,
92262483,61200,1998-12-22,1955,1955,43.126083,-76.16211,ny,syracuse,13212,011011,1040,9100,3,1,0,1,,,,,,,,,,,,,,,,,,,,,,,,,,Onondaga County,36067,90619,138894,234735,0.3860480967899972,0.5917055402901144,-0.2056574435001171,0.09170554029011435000,-0.11395190321000281000,
94173830,420000,2018-02-05,1987,1987,40.823223,-73.236572,ny,hauppauge,11788,135209,1750,436,3,2,1,2,1,,,,,,,,,,,,,,,,,,,,,,,,,Suffolk County,36103,381253,381021,771541,0.4941448348175923,0.4938441379006430,0.0003006969169492,-0.00615586209935697900,-0.00585516518240769600,
90922787,670000,2022-09-26,1965,1965,40.630554,-73.90793,ny,brooklyn,11236,099800,1870,2600,0,0,0,0,,,,,,,,,,,,,,,,,,,,,,,,,,Kings County,36047,202772,703310,913246,0.2220343697098043,0.7701210845708604,-0.5480867148610560,0.27012108457086037000,-0.27796563029019570000,
173668246,937808,2021-09-10,2019,2019,40.751657,-73.938966,ny,long island city,11101,003301,42,5046,0,0,0,0,,,,,,,,,,,,,,,,,,,,,,,,,,Queens County,36081,212665,569038,787860,0.2699273982687279,0.7222577615312366,-0.4523303632625086,0.22225776153123655000,-0.23007260173127210000,
89089893,250000,2011-03-15,1986,1986,42.642654,-73.835752,ny,albany,12208,001804,1388,13392,3,1,1,2,,,,,,,,,,,,,,,,,,,,,,,,,,Albany County,36001,51081,99474,154101,0.3314774076741877,0.6455117098526291,-0.3140343021784413,0.14551170985262907000,-0.16852259232581230000,
93723291,10000,2016-03-21,1970,1990,42.1323,-77.5025,ny,jasper,14855,962000,1920,30492,3,1,0,0,,,,,,,,,,,,,,,,,,,,,,,,,,Steuben County,36101,29474,15790,46178,0.6382693057300013,0.3419377192602538,0.2963315864697475,-0.15806228073974620000,0.13826930573000130000,
92271305,76400,2024-11-15,1972,1972,43.151177,-76.209935,ny,liverpool,13090,011231,1160,139828,0,0,0,0,,,,,,,,,,,,,,,,,,,,,,,,,,Onondaga County,36067,90619,138894,234735,0.3860480967899972,0.5917055402901144,-0.2056574435001171,0.09170554029011435000,-0.11395190321000281000,
94495156,0,2009-04-08,1989,1989,41.723848,-74.10201,ny,new paltz,12561,953300,2530,65340,2,2,0,1,1,,,,,,,,,,,,,,,,,,,,,,,,,Ulster County,36111,37590,57970,97420,0.3858550605625128,0.5950523506466845,-0.2091972900841716,0.09505235064668449000,-0.11414493943748721000,
93614397,100000,2006-01-12,1920,1920,42.810272,-73.924812,ny,schenectady,12308,020800,2544,4669,5,4,0,2,,,,,,,,,,,,,,,,,,,,,,,,,,Schenectady County,36093,30741,42465,74826,0.4108331328682543,0.5675166386015557,-0.1566835057333013,0.06751663860155566000,-0.08916686713174571000,
91758644,495000,2015-03-31,1966,1966,40.645378,-73.536044,ny,merrick,11566,415202,2771,6076,0,2,1,2,1,,,,,,,,,,,,,,,,,,,,,,,,,Nassau County,36059,326716,396504,732756,0.4458728417099280,0.5411132764521888,-0.0952404347422607,0.04111327645218876000,-0.05412715829007197500,
93409538,47150,1996-06-19,1855,1975,44.589683,-75.166768,ny,canton,13617,492000,1140,11946,2,2,0,0,,,,,,,,,,,,,,,,,,,,,,,,,,St. Lawrence County,36089,24608,19361,44907,0.5479769300999844,0.4311354577237402,0.1168414723762442,-0.06886454227625982000,0.04797693009998438000,
92976768,250000,1997-05-13,1926,1926,40.727947,-73.710897,ny,floral park,11001,161700,3200,2025,0,0,0,0,,,,,,,,,,,,,,,,,,,,,,,,,,Queens County,36081,212665,569038,787860,0.2699273982687279,0.7222577615312366,-0.4523303632625086,0.22225776153123655000,-0.23007260173127210000,
93091901,340000,2012-05-15,1940,1940,40.665065,-73.743414,ny,springfield gardens,11413,068000,1544,3191,0,0,0,0,,,,,,,,,,,,,,,,,,,,,,,,,,Queens County,36081,212665,569038,787860,0.2699273982687279,0.7222577615312366,-0.4523303632625086,0.22225776153123655000,-0.23007260173127210000,
89095240,195000,2012-03-16,1880,1880,42.65137,-73.765147,ny,albany,12210,002200,1902,1155,3,3,0,0,1,,,,,,,,,,,,,,,,,,,,,,,,,Albany County,36001,51081,99474,154101,0.3314774076741877,0.6455117098526291,-0.3140343021784413,0.14551170985262907000,-0.16852259232581230000,
93592908,625000,2010-04-15,1987,1987,42.832847,-73.958673,ny,schenectady,12302,032200,10368,23089,0,0,0,2,,,,,,,,,,,,,,,,,,,,,,,,,,Schenectady County,36093,30741,42465,74826,0.4108331328682543,0.5675166386015557,-0.1566835057333013,0.06751663860155566000,-0.08916686713174571000,
90580459,143500,2015-07-07,2010,2010,43.104816,-75.162562,ny,utica,13502,011302,2700,43560,4,3,0,2,,,,,,,,,,,,,,,,,,,,,,,,,,Herkimer County,36043,18870,9937,29319,0.6436099457689552,0.3389269756812988,0.3046829700876564,-0.16107302431870119000,0.14360994576895525000,
90970499,860000,2020-05-08,1920,1920,40.623658,-73.942707,ny,brooklyn,11210,074400,1352,2000,0,0,0,0,,,,,,,,,,,,,,,,,,,,,,,,,,Kings County,36047,202772,703310,913246,0.2220343697098043,0.7701210845708604,-0.5480867148610560,0.27012108457086037000,-0.27796563029019570000,
93443681,90000,2023-03-27,1890,1890,44.748389,-74.999089,ny,norwood,13668,491000,2541,13695,4,2,1,3,,,,,,,,,,,,,,,,,,,,,,,,,,St. Lawrence County,36089,24608,19361,44907,0.5479769300999844,0.4311354577237402,0.1168414723762442,-0.06886454227625982000,0.04797693009998438000,
92490021,350000,2008-04-25,1940,1940,41.515554,-74.226331,ny,montgomery,12549,010801,1496,78408,4,2,0,1,1,,,,,,,,,,,,,,,,,,,,,,,,,Orange County,36071,84996,84684,172099,0.4938785234080384,0.4920656133969401,0.0018129100110982,-0.00793438660305989500,-0.00612147659196160500,
93541432,164500,2019-10-31,1974,1974,42.903755,-73.751528,ny,mechanicville,12118,062505,1128,16117,3,1,0,0,,,,,,,,,,,,,,,,,,,,,,,,,,Saratoga County,36091,61305,68471,132655,0.4621386302815574,0.5161584561456409,-0.0540198258640834,0.01615845614564093000,-0.03786136971844262000,
92713092,425000,2022-02-01,1900,1900,41.360816,-73.673561,ny,carmel,10512,011600,2594,94090,5,3,0,1,1,,,,,,,,,,,,,,,,,,,,,,,,,Putnam County,36079,29283,24953,54989,0.5325246867555329,0.4537816654239939,0.0787430213315389,-0.04621833457600610400,0.03252468675553288000,
94969472,72000,1994-10-26,1984,1984,42.68634,-78.181235,ny,warsaw,14569,970800,1792,213444,3,2,0,3,,,,,,,,,,,,,,,,,,,,,,,,,,Wyoming County,36121,13898,5073,19399,0.7164286818908191,0.2615083251714006,0.4549203567194185,-0.23849167482859940000,0.21642868189081910000,
89481009,70500,2002-06-26,1970,1970,42.082024,-78.384589,ny,olean,14760,961000,1066,21986,3,1,0,2,1,,,,,,,,,,,,,,,,,,,,,,,,,Cattaraugus County,36009,22155,11879,34845,0.6358157554885924,0.3409097431482278,0.2949060123403645,-0.15909025685177220000,0.13581575548859237000,
89669238,27500,2000-04-18,1890,1890,42.53364,-75.517202,ny,norwich,13815,970400,3123,12632,5,2,0,0,,,,,,,,,,,,,,,,,,,,,,,,,,Chenango County,36017,13482,8290,22282,0.6050623821919038,0.3720491876851270,0.2330131945067767,-0.12795081231487299000,0.10506238219190378000,
94844216,1250000,2002-07-09,1997,1997,41.059378,-73.739251,ny,white plains,10604,008602,4230,72310,0,4,0,2,1,,,,,,,,,,,,,,,,,,,,,,,,,Westchester County,36119,144713,312371,462122,0.3131489087297294,0.6759492082177434,-0.3628002994880140,0.17594920821774340000,-0.18685109127027060000,
91773798,215000,1997-01-07,1961,1961,40.692867,-73.491982,ny,seaford,11783,415500,1522,5640,0,1,2,1,,,,,,,,,,,,,,,,,,,,,,,,,,Nassau County,36059,326716,396504,732756,0.4458728417099280,0.5411132764521888,-0.0952404347422607,0.04111327645218876000,-0.05412715829007197500,
90385712,77000,2008-11-26,1993,1993,44.329188,-73.458708,ny,willsboro,12996,960800,1680,376794,3,2,0,0,,,,,,,,,,,,,,,,,,,,,,,,,,Essex County,36031,8976,9947,19259,0.4660678124513214,0.5164857988472922,-0.0504179863959707,0.01648579884729217700,-0.03393218754867860500,
93910786,272000,2006-06-07,1955,1955,40.832641,-73.021618,ny,farmingville,11738,158510,1028,8712,2,1,0,0,1,,,,,,,,,,,,,,,,,,,,,,,,,Suffolk County,36103,381253,381021,771541,0.4941448348175923,0.4938441379006430,0.0003006969169492,-0.00615586209935697900,-0.00585516518240769600,
89116632,186000,2001-08-28,1973,1973,42.753589,-73.746003,ny,latham,12110,013510,2184,23522,4,3,0,2,1,,,,,,,,,,,,,,,,,,,,,,,,,Albany County,36001,51081,99474,154101,0.3314774076741877,0.6455117098526291,-0.3140343021784413,0.14551170985262907000,-0.16852259232581230000,
94421865,52297,1997-05-28,1980,1980,42.058503,-76.297742,ny,nichols,13812,020600,1746,38250,3,1,1,1,,,,,,,,,,,,,,,,,,,,,,,,,,Tioga County,36107,14791,9634,25044,0.5906005430442421,0.3846829579939307,0.2059175850503114,-0.11531704200606929000,0.09060054304424214000,
90013802,7000,2006-05-11,1920,1920,42.954814,-78.905216,ny,buffalo,14207,005802,816,3150,2,1,0,1,,,,,,,,,,,,,,,,,,,,,,,,,,Erie County,36029,197527,267174,473021,0.4175861113988596,0.5648248175028170,-0.1472387061039573,0.06482481750281699000,-0.08241388860114040000,
91513362,782500,2023-06-29,1931,1931,40.669301,-73.626983,ny,rockville centre,11570,412700,1757,6175,0,1,1,1,1,,,,,,,,,,,,,,,,,,,,,,,,,Nassau County,36059,326716,396504,732756,0.4458728417099280,0.5411132764521888,-0.0952404347422607,0.04111327645218876000,-0.05412715829007197500,
92006968,24000,1996-12-05,1997,1997,43.141866,-78.879429,ny,sanborn,14132,024303,1612,43560,3,1,1,5,1,,,,,,,,,,,,,,,,,,,,,,,,,Niagara County,36063,56068,46029,104080,0.5387009992313605,0.4422463489623366,0.0964546502690238,-0.05775365103766339000,0.03870099923136050000,
93747734,260000,2024-01-11,2005,2005,42.500597,-77.217397,ny,prattsburgh,14873,960100,1014,1742400,3,2,0,0,1,,,,,,,,,,,,,,,,,,,,,,,,,Steuben County,36101,29474,15790,46178,0.6382693057300013,0.3419377192602538,0.2963315864697475,-0.15806228073974620000,0.13826930573000130000,
93486807,280000,2017-01-25,1974,1974,43.081212,-73.750313,ny,saratoga springs,12866,061102,2240,12632,4,2,1,2,1,,,,,,,,,,,,,,,,,,,,,,,,,Saratoga County,36091,61305,68471,132655,0.4621386302815574,0.5161584561456409,-0.0540198258640834,0.01615845614564093000,-0.03786136971844262000,
94410662,137500,2024-04-22,1900,1985,42.220584,-76.179395,ny,newark valley,13811,020102,1898,15553,4,2,0,2,,,,,,,,,,,,,,,,,,,,,,,,,,Tioga County,36107,14791,9634,25044,0.5906005430442421,0.3846829579939307,0.2059175850503114,-0.11531704200606929000,0.09060054304424214000,
93678595,348500,2022-06-30,1993,2000,42.908768,-76.785133,ny,seneca falls,13148,950300,2372,29621,4,2,1,2,1,,,,,,,,,,,,,,,,,,,,,,,,,Seneca County,36099,8329,6914,15630,0.5328854766474728,0.4423544465770953,0.0905310300703774,-0.05764555342290473000,0.03288547664747277000,
91989141,175000,2024-03-28,1957,1990,43.053963,-78.841238,ny,north tonawanda,14120,022804,1236,9000,3,1,0,1,1,,,,,,,,,,,,,,,,,,,,,,,,,Niagara County,36063,56068,46029,104080,0.5387009992313605,0.4422463489623366,0.0964546502690238,-0.05775365103766339000,0.03870099923136050000,
91182577,0,1998-09-03,1880,1880,43.154329,-77.654325,ny,rochester,14611,008702,952,5000,1,1,0,1,,,,,,,,,,,,,,,,,,,,,,,,,,Monroe County,36055,145661,225746,380983,0.3823293952748547,0.5925356249491447,-0.2102062296742899,0.09253562494914469000,-0.11767060472514529000,
93918132,330000,2006-03-28,1983,1983,40.876693,-73.031231,ny,selden,11784,158116,1101,17424,3,1,0,0,,,,,,,,,,,,,,,,,,,,,,,,,,Suffolk County,36103,381253,381021,771541,0.4941448348175923,0.4938441379006430,0.0003006969169492,-0.00615586209935697900,-0.00585516518240769600,
92682182,140000,2006-11-17,1994,1994,42.584339,-75.257145,ny,new berlin,13411,590402,1456,375052,3,2,0,2,1,,,,,,,,,,,,,,,,,,,,,,,,,Otsego County,36077,14382,12975,28008,0.5134961439588689,0.4632604970008569,0.0502356469580119,-0.03673950299914308000,0.01349614395886889000,
90300750,108000,2000-11-30,1989,1989,43.052524,-78.977318,ny,grand island,14072,007303,2346,12012,4,2,1,2,1,,,,,,,,,,,,,,,,,,,,,,,,,Erie County,36029,197527,267174,473021,0.4175861113988596,0.5648248175028170,-0.1472387061039573,0.06482481750281699000,-0.08241388860114040000,
90604273,113400,2023-06-30,1900,1900,44.240451,-76.084,ny,clayton,13624,060201,1008,2614,2,1,0,1,,,,,,,,,,,,,,,,,,,,,,,,,,Jefferson County,36045,25629,17307,43848,0.5844964422550629,0.3947044334975369,0.1897920087575260,-0.10529556650246308000,0.08449644225506292000,
92336156,37000,2015-11-25,1979,1979,42.93355,-76.296848,ny,marcellus,13108,016501,780,27583,0,0,0,2,,,,,,,,,,,,,,,,,,,,,,,,,,Onondaga County,36067,90619,138894,234735,0.3860480967899972,0.5917055402901144,-0.2056574435001171,0.09170554029011435000,-0.11395190321000281000,
90960370,681006,2004-09-23,2002,2003,40.584949,-73.984778,ny,brooklyn,11214,030800,3024,2200,0,0,0,0,,,,,,,,,,,,,,,,,,,,,,,,,,Kings County,36047,202772,703310,913246,0.2220343697098043,0.7701210845708604,-0.5480867148610560,0.27012108457086037000,-0.27796563029019570000,
89784793,50000,1997-09-30,1870,1870,42.564426,-75.888111,ny,cincinnatus,13040,971100,1540,522720,3,1,0,2,,,,,,,,,,,,,,,,,,,,,,,,,,Cortland County,36023,10789,10369,21678,0.4976935141618230,0.4783190331211366,0.0193744810406863,-0.02168096687886339500,-0.00230648583817699700,
92967770,229000,1997-10-27,1910,1910,40.686851,-73.854752,ny,woodhaven,11421,001600,2000,2000,0,0,0,0,,,,,,,,,,,,,,,,,,,,,,,,,,Queens County,36081,212665,569038,787860,0.2699273982687279,0.7222577615312366,-0.4523303632625086,0.22225776153123655000,-0.23007260173127210000,
91831653,2350000,2021-07-13,2007,2009,40.721638,-74.003781,ny,new york,10013,004700,1244,0,0,0,0,0,,,,,,,,,,,,,,,,,,,,,,,,,,New York County,36061,85185,603040,694904,0.1225852779664529,0.8678033224733200,-0.7452180445068671,0.36780332247332004000,-0.37741472203354710000,
92666155,260000,2019-09-05,2008,2008,42.442938,-75.112285,ny,oneonta,13820,590800,1758,5227,3,2,0,2,1,,,,,,,,,,,,,,,,,,,,,,,,,Otsego County,36077,14382,12975,28008,0.5134961439588689,0.4632604970008569,0.0502356469580119,-0.03673950299914308000,0.01349614395886889000,
90104723,615000,2024-07-31,1967,1967,43.004463,-78.760806,ny,buffalo,14221,009113,3022,12920,4,2,1,2,1,,,,,,,,,,,,,,,,,,,,,,,,,Erie County,36029,197527,267174,473021,0.4175861113988596,0.5648248175028170,-0.1472387061039573,0.06482481750281699000,-0.08241388860114040000,
91133437,106000,2009-11-30,1965,1965,43.146976,-77.72649,ny,rochester,14624,014204,1111,13504,3,1,0,2,,,,,,,,,,,,,,,,,,,,,,,,,,Monroe County,36055,145661,225746,380983,0.3823293952748547,0.5925356249491447,-0.2102062296742899,0.09253562494914469000,-0.11767060472514529000,
92738109,85000,2008-03-03,1960,1960,40.756686,-73.905764,ny,woodside,11377,029500,1520,1805,0,0,0,0,,,,,,,,,,,,,,,,,,,,,,,,,,Queens County,36081,212665,569038,787860,0.2699273982687279,0.7222577615312366,-0.4523303632625086,0.22225776153123655000,-0.23007260173127210000,
91703354,540000,2023-03-24,1950,1950,40.746759,-73.54769,ny,westbury,11590,519000,1433,12001,0,2,0,0,1,,,,,,,,,,,,,,,,,,,,,,,,,Nassau County,36059,326716,396504,732756,0.4458728417099280,0.5411132764521888,-0.0952404347422607,0.04111327645218876000,-0.05412715829007197500,
153873505,265000,2020-02-20,1900,1900,41.292304,-73.680491,ny,goldens bridge,10526,012501,3069,30460,4,0,0,2,,,,,,,,,,,,,,,,,,,,,,,,,,Westchester County,36119,144713,312371,462122,0.3131489087297294,0.6759492082177434,-0.3628002994880140,0.17594920821774340000,-0.18685109127027060000,
94494227,160000,2011-07-01,1950,1950,41.847725,-74.215492,ny,accord,12404,952902,1415,58370,2,1,0,1,,,,,,,,,,,,,,,,,,,,,,,,,,Ulster County,36111,37590,57970,97420,0.3858550605625128,0.5950523506466845,-0.2091972900841716,0.09505235064668449000,-0.11414493943748721000,
92174054,74500,2007-12-26,1958,1958,43.121116,-76.291917,ny,syracuse,13209,011800,864,8400,3,1,0,1,,,,,,,,,,,,,,,,,,,,,,,,,,Onondaga County,36067,90619,138894,234735,0.3860480967899972,0.5917055402901144,-0.2056574435001171,0.09170554029011435000,-0.11395190321000281000,
89536617,116000,2024-12-20,1926,1930,42.086043,-79.2219,ny,jamestown,14701,030700,1240,6000,2,1,0,2,,,,,,,,,,,,,,,,,,,,,,,,,,Chautauqua County,36013,34853,23087,59304,0.5877006610009443,0.3892992041009038,0.1984014569000405,-0.11070079589909620000,0.08770066100094431000,
91877770,1550000,1998-07-17,1900,1984,40.788075,-73.979438,ny,new york,10024,017100,5219,1737,0,0,0,0,,,,,,,,,,,,,,,,,,,,,,,,,,New York County,36061,85185,603040,694904,0.1225852779664529,0.8678033224733200,-0.7452180445068671,0.36780332247332004000,-0.37741472203354710000,
89573224,0,2023-03-01,1957,1980,42.012721,-79.076642,ny,frewsburg,14738,037500,1728,435600,1,1,0,0,1,,,,,,,,,,,,,,,,,,,,,,,,,Chautauqua County,36013,34853,23087,59304,0.5877006610009443,0.3892992041009038,0.1984014569000405,-0.11070079589909620000,0.08770066100094431000,
90703115,0,2002-09-18,1907,1907,40.644378,-74.008651,ny,brooklyn,11220,009800,4260,2504,0,0,0,0,,,,,,,,,,,,,,,,,,,,,,,,,,Kings County,36047,202772,703310,913246,0.2220343697098043,0.7701210845708604,-0.5480867148610560,0.27012108457086037000,-0.27796563029019570000,
92132524,115500,2004-08-30,1986,1986,43.074597,-75.304575,ny,new hartford,13413,025300,1920,871,0,0,0,0,,,,,,,,,,,,,,,,,,,,,,,,,,Oneida County,36065,57180,41567,100746,0.5675659579536656,0.4125920632084648,0.1549738947452007,-0.08740793679153519000,0.06756595795366560000,
93412602,55995,1994-09-09,1950,1950,44.341393,-75.460515,ny,gouverneur,13642,492700,1056,18240,3,2,0,2,1,,,,,,,,,,,,,,,,,,,,,,,,,St. Lawrence County,36089,24608,19361,44907,0.5479769300999844,0.4311354577237402,0.1168414723762442,-0.06886454227625982000,0.04797693009998438000,
92945419,0,2025-03-13,1955,1955,40.722492,-73.80303,ny,fresh meadows,11366,124100,1439,4056,0,0,0,0,,,,,,,,,,,,,,,,,,,,,,,,,,Queens County,36081,212665,569038,787860,0.2699273982687279,0.7222577615312366,-0.4523303632625086,0.22225776153123655000,-0.23007260173127210000,
93238925,358000,1999-09-13,1975,1975,40.600023,-74.073722,ny,staten island,10305,002002,3520,6156,0,0,4,0,,,,,,,,,,,,,,,,,,,,,,,,,,Richmond County,36085,123320,90997,216153,0.5705218063131208,0.4209842102584743,0.1495375960546464,-0.07901578974152568000,0.07052180631312077000,
90768659,5102584,2019-07-15,1918,1918,40.69329,-73.968521,ny,brooklyn,11205,019100,9000,2500,0,0,0,0,,,,,,,,,,,,,,,,,,,,,,,,,,Kings County,36047,202772,703310,913246,0.2220343697098043,0.7701210845708604,-0.5480867148610560,0.27012108457086037000,-0.27796563029019570000,
93841367,255000,1998-09-09,1998,1998,40.926335,-72.984314,ny,miller place,11764,158328,2736,40075,4,2,0,0,1,,,,,,,,,,,,,,,,,,,,,,,,,Suffolk County,36103,381253,381021,771541,0.4941448348175923,0.4938441379006430,0.0003006969169492,-0.00615586209935697900,-0.00585516518240769600,
175099937,661862,2024-11-01,2021,2021,40.767252,-73.930336,ny,astoria,11106,007700,616,5107,0,0,0,0,,,,,,,,,,,,,,,,,,,,,,,,,,Queens County,36081,212665,569038,787860,0.2699273982687279,0.7222577615312366,-0.4523303632625086,0.22225776153123655000,-0.23007260173127210000,
94410342,138000,2024-01-29,1935,1965,42.196936,-76.24849,ny,newark valley,13811,020200,1576,13068,4,1,0,2,,,,,,,,,,,,,,,,,,,,,,,,,,Tioga County,36107,14791,9634,25044,0.5906005430442421,0.3846829579939307,0.2059175850503114,-0.11531704200606929000,0.09060054304424214000,
89426903,136000,2014-12-11,1975,1975,42.119685,-76.083574,ny,endicott,13760,013303,1788,11700,4,1,0,2,,,,,,,,,,,,,,,,,,,,,,,,,,Broome County,36007,43800,47010,92794,0.4720132767204776,0.5066060305623208,-0.0345927538418431,0.00660603056232078600,-0.02798672327952239600,
89395700,112000,2020-07-09,1980,1980,42.101313,-76.052514,ny,endicott,13760,013500,8547,6500,0,0,0,0,,,,,,,,,,,,,,,,,,,,,,,,,,Broome County,36007,43800,47010,92794,0.4720132767204776,0.5066060305623208,-0.0345927538418431,0.00660603056232078600,-0.02798672327952239600,
91447195,30000,2021-06-14,1970,1970,40.747627,-73.611776,ny,carle place,11514,303800,1269,4300,0,1,0,1,,,,,,,,,,,,,,,,,,,,,,,,,,Nassau County,36059,326716,396504,732756,0.4458728417099280,0.5411132764521888,-0.0952404347422607,0.04111327645218876000,-0.05412715829007197500,
93309603,465000,2022-11-07,1987,1987,41.118076,-74.023126,ny,nanuet,10954,011404,1648,4792,2,2,1,2,,,,,,,,,,,,,,,,,,,,,,,,,,Rockland County,36087,73186,75802,150369,0.4867093616370395,0.5041065645179525,-0.0173972028809130,0.00410656451795254900,-0.01329063836296051600,
91168324,310000,2018-06-11,1965,1965,43.098761,-77.764229,ny,rochester,14624,014602,4045,21780,0,0,0,0,,,,,,,,,,,,,,,,,,,,,,,,,,Monroe County,36055,145661,225746,380983,0.3823293952748547,0.5925356249491447,-0.2102062296742899,0.09253562494914469000,-0.11767060472514529000,
91635846,535000,2021-07-02,1958,1958,40.699745,-73.470022,ny,massapequa,11758,520900,1548,5800,0,2,0,1,,,,,,,,,,,,,,,,,,,,,,,,,,Nassau County,36059,326716,396504,732756,0.4458728417099280,0.5411132764521888,-0.0952404347422607,0.04111327645218876000,-0.05412715829007197500,
94569313,103000,2021-10-12,2023,2023,43.5115,-73.6957,ny,diamond point,12824,078000,320,147668,1,1,0,0,,,,,,,,,,,,,,,,,,,,,,,,,,Warren County,36113,17699,17642,36131,0.4898563560377515,0.4882787633887797,0.0015775926489717,-0.01172123661122032000,-0.01014364396224848300,
89212621,24000,2010-10-01,1997,1997,0,0,ny,,,951202,900,2578752,1,1,0,0,,,,,,,,,,,,,,,,,,,,,,,,,,Allegany County,36003,14135,6048,20782,0.6801559041478202,0.2910210759310942,0.3891348282167260,-0.20897892406890578000,0.18015590414782023000,
89133099,125000,2008-05-13,1954,1954,42.68983,-73.873503,ny,albany,12203,014614,1284,12375,3,1,0,1,1,,,,,,,,,,,,,,,,,,,,,,,,,Albany County,36001,51081,99474,154101,0.3314774076741877,0.6455117098526291,-0.3140343021784413,0.14551170985262907000,-0.16852259232581230000,
153648363,507000,2015-10-13,2013,2013,40.626785,-74.006529,ny,brooklyn,11219,021000,1010,7800,0,0,0,0,,,,,,,,,,,,,,,,,,,,,,,,,,Kings County,36047,202772,703310,913246,0.2220343697098043,0.7701210845708604,-0.5480867148610560,0.27012108457086037000,-0.27796563029019570000,
91721143,910000,2025-05-15,1953,1953,40.702532,-73.557912,ny,east meadow,11554,408100,1600,7500,0,2,0,1,,,,,,,,,,,,,,,,,,,,,,,,,,Nassau County,36059,326716,396504,732756,0.4458728417099280,0.5411132764521888,-0.0952404347422607,0.04111327645218876000,-0.05412715829007197500,
153673874,295100,2013-07-09,1770,2014,41.928587,-73.909879,ny,rhinebeck,12572,160005,2459,8712,3,3,1,1,1,,,,,,,,,,,,,,,,,,,,,,,,,Dutchess County,36027,66872,81443,151122,0.4425034078426701,0.5389221953123966,-0.0964187874697264,0.03892219531239660000,-0.05749659215732988400,
91678601,0,2011-08-29,1970,1970,40.714041,-73.53417,ny,east meadow,11554,408300,1565,7125,0,2,0,1,1,,,,,,,,,,,,,,,,,,,,,,,,,Nassau County,36059,326716,396504,732756,0.4458728417099280,0.5411132764521888,-0.0952404347422607,0.04111327645218876000,-0.05412715829007197500,
94734616,770000,2022-07-01,2005,2005,40.916324,-73.770305,ny,new rochelle,10801,006000,1378,0,2,2,1,0,1,,,,,,,,,,,,,,,,,,,,,,,,,Westchester County,36119,144713,312371,462122,0.3131489087297294,0.6759492082177434,-0.3628002994880140,0.17594920821774340000,-0.18685109127027060000,
94976576,110500,2007-11-09,1940,1940,42.788616,-77.992382,ny,perry,14530,970600,1440,191228,3,1,1,1,,,,,,,,,,,,,,,,,,,,,,,,,,Wyoming County,36121,13898,5073,19399,0.7164286818908191,0.2615083251714006,0.4549203567194185,-0.23849167482859940000,0.21642868189081910000,
90699230,1230000,2023-12-27,1920,1920,40.645157,-74.000287,ny,brooklyn,11232,009201,2128,2003,0,0,0,0,,,,,,,,,,,,,,,,,,,,,,,,,,Kings County,36047,202772,703310,913246,0.2220343697098043,0.7701210845708604,-0.5480867148610560,0.27012108457086037000,-0.27796563029019570000,
89443393,370000,2017-06-23,1974,1974,42.2874,-78.6539,ny,ellicottville,14731,960704,3376,15618,5,2,1,0,,,,,,,,,,,,,,,,,,,,,,,,,,Cattaraugus County,36009,22155,11879,34845,0.6358157554885924,0.3409097431482278,0.2949060123403645,-0.15909025685177220000,0.13581575548859237000,
91957081,1250000,2024-08-13,1911,1911,40.80343,-73.96559,ny,new york,10025,019500,1334,0,0,0,0,0,,,,,,,,,,,,,,,,,,,,,,,,,,New York County,36061,85185,603040,694904,0.1225852779664529,0.8678033224733200,-0.7452180445068671,0.36780332247332004000,-0.37741472203354710000,
89877433,300000,2001-01-18,2010,2010,41.604193,-73.681686,ny,poughquag,12570,020005,3452,72310,4,4,0,2,1,,,,,,,,,,,,,,,,,,,,,,,,,Dutchess County,36027,66872,81443,151122,0.4425034078426701,0.5389221953123966,-0.0964187874697264,0.03892219531239660000,-0.05749659215732988400,
92227500,37000,1996-03-13,1942,1942,43.175113,-76.122665,ny,cicero,13039,010301,882,13620,1,1,0,2,,,,,,,,,,,,,,,,,,,,,,,,,,Onondaga County,36067,90619,138894,234735,0.3860480967899972,0.5917055402901144,-0.2056574435001171,0.09170554029011435000,-0.11395190321000281000,
91771019,240000,2015-01-16,1924,1924,40.6801,-73.5865,ny,roosevelt,11575,413900,1054,7000,0,2,0,2,,,,,,,,,,,,,,,,,,,,,,,,,,Nassau County,36059,326716,396504,732756,0.4458728417099280,0.5411132764521888,-0.0952404347422607,0.04111327645218876000,-0.05412715829007197500,
90938246,780000,2016-01-14,1940,2004,40.617532,-73.902829,ny,brooklyn,11234,070601,2016,3200,0,0,0,0,,,,,,,,,,,,,,,,,,,,,,,,,,Kings County,36047,202772,703310,913246,0.2220343697098043,0.7701210845708604,-0.5480867148610560,0.27012108457086037000,-0.27796563029019570000,
89779923,20000,2000-08-16,1980,1980,42.476456,-73.47148,ny,east chatham,12060,000100,938,125888,0,0,0,2,,,,,,,,,,,,,,,,,,,,,,,,,,Columbia County,36021,14464,20386,35522,0.4071842801644051,0.5738978661111424,-0.1667135859467371,0.07389786611114235000,-0.09281571983559489000,
94986876,83500,1996-09-27,1880,1880,42.66633,-77.056492,ny,penn yan,14527,150200,2939,13072,4,2,0,0,,,,,,,,,,,,,,,,,,,,,,,,,,Yates County,36123,6208,4219,10701,0.5801326978787029,0.3942622184842538,0.1858704793944491,-0.10573778151574620000,0.08013269787870292000,
92167377,0,1998-04-30,1924,1924,43.0683,-75.29,ny,new hartford,13413,025100,1176,12481,3,1,1,1,,,,,,,,,,,,,,,,,,,,,,,,,,Oneida County,36065,57180,41567,100746,0.5675659579536656,0.4125920632084648,0.1549738947452007,-0.08740793679153519000,0.06756595795366560000,
93857633,794000,2025-05-02,1988,1988,40.944276,-72.992682,ny,miller place,11764,158329,4823,31799,5,3,0,0,1,,,,,,,,,,,,,,,,,,,,,,,,,Suffolk County,36103,381253,381021,771541,0.4941448348175923,0.4938441379006430,0.0003006969169492,-0.00615586209935697900,-0.00585516518240769600,
92911632,716958,2022-10-11,2004,2004,40.755994,-73.829298,ny,flushing,11355,084902,914,0,0,0,0,0,,,,,,,,,,,,,,,,,,,,,,,,,,Queens County,36081,212665,569038,787860,0.2699273982687279,0.7222577615312366,-0.4523303632625086,0.22225776153123655000,-0.23007260173127210000,
89873566,350000,2015-07-24,2014,2014,41.576429,-73.739253,ny,stormville,12582,050104,2496,81022,3,3,0,2,1,,,,,,,,,,,,,,,,,,,,,,,,,Dutchess County,36027,66872,81443,151122,0.4425034078426701,0.5389221953123966,-0.0964187874697264,0.03892219531239660000,-0.05749659215732988400,
90875523,0,2018-10-22,1920,1920,40.614833,-74.002773,ny,brooklyn,11214,018600,2640,2150,0,0,0,0,,,,,,,,,,,,,,,,,,,,,,,,,,Kings County,36047,202772,703310,913246,0.2220343697098043,0.7701210845708604,-0.5480867148610560,0.27012108457086037000,-0.27796563029019570000,
94533106,240000,2011-11-01,1989,1989,42.0783,-74.3207,ny,phoenicia,12464,955300,1232,204732,2,2,0,3,1,,,,,,,,,,,,,,,,,,,,,,,,,Ulster County,36111,37590,57970,97420,0.3858550605625128,0.5950523506466845,-0.2091972900841716,0.09505235064668449000,-0.11414493943748721000,
92662874,70000,2010-03-05,1890,1985,42.5872,-74.8236,ny,schenevus,12155,590701,5900,6970,0,0,0,0,,,,,,,,,,,,,,,,,,,,,,,,,,Otsego County,36077,14382,12975,28008,0.5134961439588689,0.4632604970008569,0.0502356469580119,-0.03673950299914308000,0.01349614395886889000,
93545703,274000,2002-08-07,1996,1996,42.880677,-73.762766,ny,halfmoon,12065,062406,2845,25700,4,2,1,2,1,,,,,,,,,,,,,,,,,,,,,,,,,Saratoga County,36091,61305,68471,132655,0.4621386302815574,0.5161584561456409,-0.0540198258640834,0.01615845614564093000,-0.03786136971844262000,
90473635,96000,2007-10-19,1924,1960,43.069777,-78.273081,ny,oakfield,14125,950200,1632,7200,3,1,1,2,,,,,,,,,,,,,,,,,,,,,,,,,,Genesee County,36037,18876,9625,29217,0.6460622240476435,0.3294314953622890,0.3166307286853544,-0.17056850463771100000,0.14606222404764346000,
94290777,380000,2021-09-02,1919,1919,40.750445,-73.187824,ny,islip terrace,11752,146500,1059,18295,0,0,0,0,,,,,,,,,,,,,,,,,,,,,,,,,,Suffolk County,36103,381253,381021,771541,0.4941448348175923,0.4938441379006430,0.0003006969169492,-0.00615586209935697900,-0.00585516518240769600,
90233885,91000,1995-08-04,1948,1948,42.976394,-78.82561,ny,buffalo,14223,008001,1478,6250,3,2,0,2,1,,,,,,,,,,,,,,,,,,,,,,,,,Erie County,36029,197527,267174,473021,0.4175861113988596,0.5648248175028170,-0.1472387061039573,0.06482481750281699000,-0.08241388860114040000,
90230782,348540,2021-10-14,1965,1965,42.97966,-78.653099,ny,clarence,14031,014603,1820,27443,3,2,1,2,1,,,,,,,,,,,,,,,,,,,,,,,,,Erie County,36029,197527,267174,473021,0.4175861113988596,0.5648248175028170,-0.1472387061039573,0.06482481750281699000,-0.08241388860114040000,
90925407,1525000,2022-08-10,1935,1935,40.616392,-74.009652,ny,brooklyn,11228,015000,1840,2525,0,0,0,0,,,,,,,,,,,,,,,,,,,,,,,,,,Kings County,36047,202772,703310,913246,0.2220343697098043,0.7701210845708604,-0.5480867148610560,0.27012108457086037000,-0.27796563029019570000,
90560092,26400,2016-03-09,1992,1992,42.985905,-75.158642,ny,frankfort,13340,010100,1380,104544,3,1,0,3,,,,,,,,,,,,,,,,,,,,,,,,,,Herkimer County,36043,18870,9937,29319,0.6436099457689552,0.3389269756812988,0.3046829700876564,-0.16107302431870119000,0.14360994576895525000,
93873517,625000,2020-10-06,2000,2000,40.927953,-73.013145,ny,mount sinai,11766,158306,3671,40511,5,2,0,0,1,,,,,,,,,,,,,,,,,,,,,,,,,Suffolk County,36103,381253,381021,771541,0.4941448348175923,0.4938441379006430,0.0003006969169492,-0.00615586209935697900,-0.00585516518240769600,
94732747,785000,2023-12-21,1895,1895,40.914513,-73.792882,ny,new rochelle,10801,006301,2087,5663,3,2,0,2,,,,,,,,,,,,,,,,,,,,,,,,,,Westchester County,36119,144713,312371,462122,0.3131489087297294,0.6759492082177434,-0.3628002994880140,0.17594920821774340000,-0.18685109127027060000,
94432242,350000,2021-12-13,1985,1985,42.21437,-76.188429,ny,newark valley,13811,020102,2866,74052,4,2,1,3,1,,,,,,,,,,,,,,,,,,,,,,,,,Tioga County,36107,14791,9634,25044,0.5906005430442421,0.3846829579939307,0.2059175850503114,-0.11531704200606929000,0.09060054304424214000,
159588793,180000,2022-11-01,2023,2023,42.996788,-78.632774,ny,clarence,14031,014703,3995,22651,4,4,1,3,,,,,,,,,,,,,,,,,,,,,,,,,,Erie County,36029,197527,267174,473021,0.4175861113988596,0.5648248175028170,-0.1472387061039573,0.06482481750281699000,-0.08241388860114040000,
91350557,150000,2020-03-02,1953,1953,43.10693,-77.481355,ny,east rochester,14445,012000,1560,6534,3,1,0,1,1,,,,,,,,,,,,,,,,,,,,,,,,,Monroe County,36055,145661,225746,380983,0.3823293952748547,0.5925356249491447,-0.2102062296742899,0.09253562494914469000,-0.11767060472514529000,
92317630,85000,2020-04-21,1940,1940,43.098863,-76.129313,ny,syracuse,13211,013900,1080,11165,3,1,1,0,,,,,,,,,,,,,,,,,,,,,,,,,,Onondaga County,36067,90619,138894,234735,0.3860480967899972,0.5917055402901144,-0.2056574435001171,0.09170554029011435000,-0.11395190321000281000,
93150781,120000,2001-11-05,1930,1930,42.528111,-73.748645,ny,castleton on hudson,12033,052503,2198,8276,3,2,1,1,1,,,,,,,,,,,,,,,,,,,,,,,,,Rensselaer County,36083,36500,40969,79409,0.4596456321071919,0.5159238877205354,-0.0562782556133435,0.01592388772053543500,-0.04035436789280811000,
91047687,74899,2017-07-10,1900,1965,42.8705,-77.8857,ny,york,14592,030201,1464,15373,3,1,0,0,,,,,,,,,,,,,,,,,,,,,,,,,,Livingston County,36051,18182,12477,31401,0.5790261456641508,0.3973440336295022,0.1816821120346485,-0.10265596637049779000,0.07902614566415078000,
91180087,5680000,2007-09-12,1971,1971,43.149724,-77.621127,ny,rochester,14608,009500,175832,261796,0,0,0,0,,,,,,,,,,,,,,,,,,,,,,,,,,Monroe County,36055,145661,225746,380983,0.3823293952748547,0.5925356249491447,-0.2102062296742899,0.09253562494914469000,-0.11767060472514529000,
94514343,52000,2003-12-24,1967,1967,41.931868,-74.032554,ny,kingston,12401,952300,2236,6500,5,2,1,1,1,,,,,,,,,,,,,,,,,,,,,,,,,Ulster County,36111,37590,57970,97420,0.3858550605625128,0.5950523506466845,-0.2091972900841716,0.09505235064668449000,-0.11414493943748721000,
91665904,427000,2007-07-06,1949,1949,40.715232,-73.554338,ny,east meadow,11554,408200,1438,6000,0,1,0,0,,,,,,,,,,,,,,,,,,,,,,,,,,Nassau County,36059,326716,396504,732756,0.4458728417099280,0.5411132764521888,-0.0952404347422607,0.04111327645218876000,-0.05412715829007197500,
90974595,0,2012-03-20,1940,1940,40.630532,-73.924069,ny,brooklyn,11234,072800,2460,1749,0,0,0,0,,,,,,,,,,,,,,,,,,,,,,,,,,Kings County,36047,202772,703310,913246,0.2220343697098043,0.7701210845708604,-0.5480867148610560,0.27012108457086037000,-0.27796563029019570000,
90921324,0,2025-06-23,1925,1925,40.638531,-73.906251,ny,brooklyn,11236,096600,812,2358,0,0,0,0,,,,,,,,,,,,,,,,,,,,,,,,,,Kings County,36047,202772,703310,913246,0.2220343697098043,0.7701210845708604,-0.5480867148610560,0.27012108457086037000,-0.27796563029019570000,
94534051,320000,2007-06-18,1981,1981,41.618945,-74.146951,ny,wallkill,12589,955400,1650,42000,4,2,0,0,,,,,,,,,,,,,,,,,,,,,,,,,,Ulster County,36111,37590,57970,97420,0.3858550605625128,0.5950523506466845,-0.2091972900841716,0.09505235064668449000,-0.11414493943748721000,
89277640,595000,2014-10-16,1999,2000,40.829949,-73.891092,ny,bronx,10459,012500,3000,1615,0,0,0,0,,,,,,,,,,,,,,,,,,,,,,,,,,Bronx County,36005,67740,355374,425715,0.1591205383883584,0.8347697403192277,-0.6756492019308693,0.33476974031922770000,-0.34087946161164160000,
93747333,100000,2017-06-05,1978,1978,42.513446,-77.31019,ny,prattsburgh,14873,960200,1360,1090742,1,1,0,0,,,,,,,,,,,,,,,,,,,,,,,,,,Steuben County,36101,29474,15790,46178,0.6382693057300013,0.3419377192602538,0.2963315864697475,-0.15806228073974620000,0.13826930573000130000,
92178418,134000,2020-11-24,1930,1930,43.066481,-76.134938,ny,syracuse,13203,000800,2154,4600,5,2,0,0,,,,,,,,,,,,,,,,,,,,,,,,,,Onondaga County,36067,90619,138894,234735,0.3860480967899972,0.5917055402901144,-0.2056574435001171,0.09170554029011435000,-0.11395190321000281000,
89164190,287500,2013-07-03,1970,1970,42.656491,-73.947929,ny,voorheesville,12186,014503,2747,20038,3,2,1,2,1,,,,,,,,,,,,,,,,,,,,,,,,,Albany County,36001,51081,99474,154101,0.3314774076741877,0.6455117098526291,-0.3140343021784413,0.14551170985262907000,-0.16852259232581230000,
93266668,300000,2004-02-10,1980,1980,40.604142,-74.08798,ny,staten island,10304,005000,2004,304467,0,0,4,0,,,,,,,,,,,,,,,,,,,,,,,,,,Richmond County,36085,123320,90997,216153,0.5705218063131208,0.4209842102584743,0.1495375960546464,-0.07901578974152568000,0.07052180631312077000,
91321984,166000,2009-11-06,1932,1932,42.99699,-77.524717,ny,honeoye falls,14472,012402,1504,43560,3,1,1,4,1,,,,,,,,,,,,,,,,,,,,,,,,,Monroe County,36055,145661,225746,380983,0.3823293952748547,0.5925356249491447,-0.2102062296742899,0.09253562494914469000,-0.11767060472514529000,
91662480,0,2013-02-06,1936,1936,40.647079,-73.637455,ny,oceanside,11572,413100,1420,8500,0,1,0,1,1,,,,,,,,,,,,,,,,,,,,,,,,,Nassau County,36059,326716,396504,732756,0.4458728417099280,0.5411132764521888,-0.0952404347422607,0.04111327645218876000,-0.05412715829007197500,
92286885,135000,2019-10-31,1967,1980,43.091177,-76.462904,ny,jordan,13080,012000,1200,164221,3,1,1,2,1,,,,,,,,,,,,,,,,,,,,,,,,,Onondaga County,36067,90619,138894,234735,0.3860480967899972,0.5917055402901144,-0.2056574435001171,0.09170554029011435000,-0.11395190321000281000,
91062267,116000,2011-04-27,1985,1985,42.807183,-75.31733,ny,west edmeston,13485,031100,1336,45302,2,1,0,4,,,,,,,,,,,,,,,,,,,,,,,,,,Madison County,36053,18408,14807,34038,0.5408073329807862,0.4350138080968329,0.1057935248839532,-0.06498619190316712000,0.04080733298078620400,
89327229,550000,2009-11-09,1925,1925,40.849435,-73.78631,ny,bronx,10464,051601,1792,3864,0,0,0,0,,,,,,,,,,,,,,,,,,,,,,,,,,Bronx County,36005,67740,355374,425715,0.1591205383883584,0.8347697403192277,-0.6756492019308693,0.33476974031922770000,-0.34087946161164160000,
92852904,0,2021-06-07,1965,1965,40.708975,-73.911728,ny,ridgewood,11385,059100,1848,2200,0,0,0,0,,,,,,,,,,,,,,,,,,,,,,,,,,Queens County,36081,212665,569038,787860,0.2699273982687279,0.7222577615312366,-0.4523303632625086,0.22225776153123655000,-0.23007260173127210000,
90819588,0,2002-05-20,1920,1920,40.679009,-73.867013,ny,brooklyn,11208,118800,14722,7987,0,0,0,0,,,,,,,,,,,,,,,,,,,,,,,,,,Kings County,36047,202772,703310,913246,0.2220343697098043,0.7701210845708604,-0.5480867148610560,0.27012108457086037000,-0.27796563029019570000,
90706117,1400000,2024-04-11,1915,1915,40.638815,-74.011519,ny,brooklyn,11220,010200,1516,1786,0,0,0,0,,,,,,,,,,,,,,,,,,,,,,,,,,Kings County,36047,202772,703310,913246,0.2220343697098043,0.7701210845708604,-0.5480867148610560,0.27012108457086037000,-0.27796563029019570000,
89565776,10779,2010-12-10,1960,1960,42.356852,-79.275592,ny,cassadaga,14718,036100,864,1751112,2,1,0,0,,,,,,,,,,,,,,,,,,,,,,,,,,Chautauqua County,36013,34853,23087,59304,0.5877006610009443,0.3892992041009038,0.1984014569000405,-0.11070079589909620000,0.08770066100094431000,
91965596,182000,2017-08-28,1986,1986,43.157523,-78.667283,ny,lockport,14094,023902,1689,13939,3,1,1,1,1,,,,,,,,,,,,,,,,,,,,,,,,,Niagara County,36063,56068,46029,104080,0.5387009992313605,0.4422463489623366,0.0964546502690238,-0.05775365103766339000,0.03870099923136050000,
90652121,36000,2010-12-29,2023,2023,0,0,ny,,,062400,1392,2178000,3,0,0,0,,,,,,,,,,,,,,,,,,,,,,,,,,Jefferson County,36045,25629,17307,43848,0.5844964422550629,0.3947044334975369,0.1897920087575260,-0.10529556650246308000,0.08449644225506292000,
93633171,87500,2014-11-19,1925,1970,42.787503,-73.958321,ny,schenectady,12306,033300,1536,6534,4,2,0,0,,,,,,,,,,,,,,,,,,,,,,,,,,Schenectady County,36093,30741,42465,74826,0.4108331328682543,0.5675166386015557,-0.1566835057333013,0.06751663860155566000,-0.08916686713174571000,
90554654,63554,2021-12-30,1917,1917,43.011432,-75.03147,ny,ilion,13357,010400,1954,4972,3,2,1,0,,,,,,,,,,,,,,,,,,,,,,,,,,Herkimer County,36043,18870,9937,29319,0.6436099457689552,0.3389269756812988,0.3046829700876564,-0.16107302431870119000,0.14360994576895525000,
93232001,248888,2017-09-11,1955,1955,40.629807,-74.166119,ny,staten island,10303,031901,760,5080,0,0,4,0,,,,,,,,,,,,,,,,,,,,,,,,,,Richmond County,36085,123320,90997,216153,0.5705218063131208,0.4209842102584743,0.1495375960546464,-0.07901578974152568000,0.07052180631312077000,
92971107,0,2018-03-30,1920,1920,40.677466,-73.85018,ny,ozone park,11417,005400,1787,2600,0,0,0,0,,,,,,,,,,,,,,,,,,,,,,,,,,Queens County,36081,212665,569038,787860,0.2699273982687279,0.7222577615312366,-0.4523303632625086,0.22225776153123655000,-0.23007260173127210000,
91455334,210000,1995-03-07,1955,1955,40.790768,-73.509248,ny,syosset,11791,519500,1858,10005,0,2,1,2,,,,,,,,,,,,,,,,,,,,,,,,,,Nassau County,36059,326716,396504,732756,0.4458728417099280,0.5411132764521888,-0.0952404347422607,0.04111327645218876000,-0.05412715829007197500,
92992052,360000,2018-05-25,2012,2012,40.71025,-73.816415,ny,jamaica,11435,022002,638,0,0,0,0,0,,,,,,,,,,,,,,,,,,,,,,,,,,Queens County,36081,212665,569038,787860,0.2699273982687279,0.7222577615312366,-0.4523303632625086,0.22225776153123655000,-0.23007260173127210000,
89395604,40000,2012-03-05,1920,1920,42.329596,-75.970249,ny,whitney point,13862,011901,2356,15682,6,2,0,1,,,,,,,,,,,,,,,,,,,,,,,,,,Broome County,36007,43800,47010,92794,0.4720132767204776,0.5066060305623208,-0.0345927538418431,0.00660603056232078600,-0.02798672327952239600,
92428003,20000,1997-10-21,1900,1900,41.43465,-74.425262,ny,middletown,10940,001602,2724,5227,4,3,0,0,,,,,,,,,,,,,,,,,,,,,,,,,,Orange County,36071,84996,84684,172099,0.4938785234080384,0.4920656133969401,0.0018129100110982,-0.00793438660305989500,-0.00612147659196160500,
91238209,155500,2015-11-20,1990,1990,43.192256,-77.692151,ny,rochester,14626,014102,1404,7670,2,1,1,2,,,,,,,,,,,,,,,,,,,,,,,,,,Monroe County,36055,145661,225746,380983,0.3823293952748547,0.5925356249491447,-0.2102062296742899,0.09253562494914469000,-0.11767060472514529000,
94721718,285000,1997-09-18,1926,1926,41.020411,-73.782087,ny,white plains,10606,009201,3012,5227,0,2,0,2,,,,,,,,,,,,,,,,,,,,,,,,,,Westchester County,36119,144713,312371,462122,0.3131489087297294,0.6759492082177434,-0.3628002994880140,0.17594920821774340000,-0.18685109127027060000,
90410394,88000,2005-07-07,1890,1890,44.716917,-74.551406,ny,dickinson center,12930,951300,2488,43560,3,2,0,0,,,,,,,,,,,,,,,,,,,,,,,,,,Franklin County,36033,9668,9253,19268,0.5017645837658293,0.4802262819182064,0.0215383018476229,-0.01977371808179362300,0.00176458376582933060,
94657156,220000,2022-01-19,1983,2000,43.233,-76.825,ny,wolcott,14590,021502,1242,17210,2,1,0,0,,,,,,,,,,,,,,,,,,,,,,,,,,Wayne County,36117,26204,17456,44714,0.5860356935188085,0.3903922708771302,0.1956434226416782,-0.10960772912286981000,0.08603569351880846000,
94881990,1175000,2023-07-17,1956,1956,41.32922,-73.607405,ny,north salem,10560,015000,2018,155074,0,1,0,0,1,,,,,,,,,,,,,,,,,,,,,,,,,Westchester County,36119,144713,312371,462122,0.3131489087297294,0.6759492082177434,-0.3628002994880140,0.17594920821774340000,-0.18685109127027060000,
92904082,130000,2011-07-27,1950,1950,40.787,-73.8098,ny,whitestone,11357,098700,1400,4576,0,0,0,5,,,,,,,,,,,,,,,,,,,,,,,,,,Queens County,36081,212665,569038,787860,0.2699273982687279,0.7222577615312366,-0.4523303632625086,0.22225776153123655000,-0.23007260173127210000,
89314076,0,2025-10-16,1955,1955,40.83664,-73.820105,ny,bronx,10465,027401,1938,1750,0,0,0,0,,,,,,,,,,,,,,,,,,,,,,,,,,Bronx County,36005,67740,355374,425715,0.1591205383883584,0.8347697403192277,-0.6756492019308693,0.33476974031922770000,-0.34087946161164160000,
94352380,487000,2022-10-03,1976,1976,41.722242,-74.642067,ny,south fallsburg,12779,950900,2170,13920,3,2,0,0,1,,,,,,,,,,,,,,,,,,,,,,,,,Sullivan County,36105,18665,15489,34647,0.5387190810171155,0.4470516927872543,0.0916673882298612,-0.05294830721274568000,0.03871908101711552000,
91218683,120000,2008-04-16,1992,1992,43.220581,-77.72621,ny,rochester,14626,013510,1406,11761,3,1,0,2,1,,,,,,,,,,,,,,,,,,,,,,,,,Monroe County,36055,145661,225746,380983,0.3823293952748547,0.5925356249491447,-0.2102062296742899,0.09253562494914469000,-0.11767060472514529000,
90243830,300000,2017-05-26,1890,1890,42.769139,-78.614623,ny,east aurora,14052,014000,1569,11550,4,2,1,1,1,,,,,,,,,,,,,,,,,,,,,,,,,Erie County,36029,197527,267174,473021,0.4175861113988596,0.5648248175028170,-0.1472387061039573,0.06482481750281699000,-0.08241388860114040000,
91330590,28650,2005-04-11,1956,1956,42.986238,-77.657929,ny,rush,14543,013300,2570,204732,3,2,1,1,1,,,,,,,,,,,,,,,,,,,,,,,,,Monroe County,36055,145661,225746,380983,0.3823293952748547,0.5925356249491447,-0.2102062296742899,0.09253562494914469000,-0.11767060472514529000,
92896223,0,2010-09-03,1960,1960,40.783619,-73.805853,ny,whitestone,11357,102900,2640,3571,0,0,0,0,,,,,,,,,,,,,,,,,,,,,,,,,,Queens County,36081,212665,569038,787860,0.2699273982687279,0.7222577615312366,-0.4523303632625086,0.22225776153123655000,-0.23007260173127210000,
89249051,3650000,2025-01-02,1931,1931,40.8404,-73.8801,ny,bronx,10460,036100,2112,11802,0,0,0,7,,,,,,,,,,,,,,,,,,,,,,,,,,Bronx County,36005,67740,355374,425715,0.1591205383883584,0.8347697403192277,-0.6756492019308693,0.33476974031922770000,-0.34087946161164160000,
156388700,10000,2023-04-17,2011,2011,44.1253,-76.2927,ny,cape vincent,13618,060301,2951,47916,3,3,0,4,1,,,,,,,,,,,,,,,,,,,,,,,,,Jefferson County,36045,25629,17307,43848,0.5844964422550629,0.3947044334975369,0.1897920087575260,-0.10529556650246308000,0.08449644225506292000,
89996087,5000,1996-09-23,1900,1900,42.878996,-78.853297,ny,buffalo,14210,016400,1217,8625,2,1,0,0,,,,,,,,,,,,,,,,,,,,,,,,,,Erie County,36029,197527,267174,473021,0.4175861113988596,0.5648248175028170,-0.1472387061039573,0.06482481750281699000,-0.08241388860114040000,
91984838,93500,2023-03-28,1939,1939,43.094444,-79.041862,ny,niagara falls,14301,021200,1368,3960,3,2,0,0,,,,,,,,,,,,,,,,,,,,,,,,,,Niagara County,36063,56068,46029,104080,0.5387009992313605,0.4422463489623366,0.0964546502690238,-0.05775365103766339000,0.03870099923136050000,
90019937,130000,2022-03-11,1920,1920,42.952317,-78.9025,ny,buffalo,14207,005802,1868,3210,3,1,0,0,,,,,,,,,,,,,,,,,,,,,,,,,,Erie County,36029,197527,267174,473021,0.4175861113988596,0.5648248175028170,-0.1472387061039573,0.06482481750281699000,-0.08241388860114040000,
91720019,936000,2019-01-25,2020,2020,40.649302,-73.457463,ny,massapequa,11758,521400,4523,15451,0,4,1,1,1,,,,,,,,,,,,,,,,,,,,,,,,,Nassau County,36059,326716,396504,732756,0.4458728417099280,0.5411132764521888,-0.0952404347422607,0.04111327645218876000,-0.05412715829007197500,
89174347,300000,2020-11-17,1960,1960,42.723712,-73.842021,ny,albany,12205,013901,1260,14810,3,1,0,2,,,,,,,,,,,,,,,,,,,,,,,,,,Albany County,36001,51081,99474,154101,0.3314774076741877,0.6455117098526291,-0.3140343021784413,0.14551170985262907000,-0.16852259232581230000,
160179855,233000,2016-12-16,2009,2009,42.613434,-77.686264,ny,dansville,14437,031300,1778,2003760,3,2,0,0,,,,,,,,,,,,,,,,,,,,,,,,,,Livingston County,36051,18182,12477,31401,0.5790261456641508,0.3973440336295022,0.1816821120346485,-0.10265596637049779000,0.07902614566415078000,
91840103,3750000,2025-04-18,,,40.738444,-74.008593,ny,new york,10014,007900,1284,2,0,0,0,0,,,,,,,,,,,,,,,,,,,,,,,,,,New York County,36061,85185,603040,694904,0.1225852779664529,0.8678033224733200,-0.7452180445068671,0.36780332247332004000,-0.37741472203354710000,
164894367,20000,1999-11-10,1890,1890,42.010802,-76.539951,ny,waverly,14892,020703,1749,28181,4,1,0,2,1,,,,,,,,,,,,,,,,,,,,,,,,,Tioga County,36107,14791,9634,25044,0.5906005430442421,0.3846829579939307,0.2059175850503114,-0.11531704200606929000,0.09060054304424214000,
93863058,445000,2021-03-01,1981,1981,40.919413,-73.078693,ny,east setauket,11733,158011,1527,12197,3,1,0,0,,,,,,,,,,,,,,,,,,,,,,,,,,Suffolk County,36103,381253,381021,771541,0.4941448348175923,0.4938441379006430,0.0003006969169492,-0.00615586209935697900,-0.00585516518240769600,
163830034,150000,2004-11-04,2022,2022,42.40368,-78.823146,ny,cattaraugus,14719,960300,1585,7180866,3,2,0,8,,,,,,,,,,,,,,,,,,,,,,,,,,Cattaraugus County,36009,22155,11879,34845,0.6358157554885924,0.3409097431482278,0.2949060123403645,-0.15909025685177220000,0.13581575548859237000,
91983931,87500,2006-11-03,1900,1953,43.082044,-78.965311,ny,niagara falls,14304,022300,1352,6390,3,1,0,2,1,,,,,,,,,,,,,,,,,,,,,,,,,Niagara County,36063,56068,46029,104080,0.5387009992313605,0.4422463489623366,0.0964546502690238,-0.05775365103766339000,0.03870099923136050000,
90059524,44897,2015-11-23,1950,1950,42.962068,-78.90163,ny,buffalo,14207,005801,1564,4046,4,2,0,0,,,,,,,,,,,,,,,,,,,,,,,,,,Erie County,36029,197527,267174,473021,0.4175861113988596,0.5648248175028170,-0.1472387061039573,0.06482481750281699000,-0.08241388860114040000,
91161941,75000,2021-09-16,1927,1927,43.17905,-77.594289,ny,rochester,14621,008000,1390,3198,3,1,0,1,,,,,,,,,,,,,,,,,,,,,,,,,,Monroe County,36055,145661,225746,380983,0.3823293952748547,0.5925356249491447,-0.2102062296742899,0.09253562494914469000,-0.11767060472514529000,
91685908,370000,2015-03-23,1953,1953,40.63801,-73.661777,ny,east rockaway,11518,412200,1800,8928,0,2,0,0,,,,,,,,,,,,,,,,,,,,,,,,,,Nassau County,36059,326716,396504,732756,0.4458728417099280,0.5411132764521888,-0.0952404347422607,0.04111327645218876000,-0.05412715829007197500,
89179291,254000,2015-09-08,1984,1984,42.747121,-73.738264,ny,latham,12110,013510,1700,7405,3,1,1,1,,,,,,,,,,,,,,,,,,,,,,,,,,Albany County,36001,51081,99474,154101,0.3314774076741877,0.6455117098526291,-0.3140343021784413,0.14551170985262907000,-0.16852259232581230000,
156829266,3700000,2017-11-30,1930,1930,40.713775,-74.012935,ny,new york,10007,002100,2341,0,0,0,0,0,,,,,,,,,,,,,,,,,,,,,,,,,,New York County,36061,85185,603040,694904,0.1225852779664529,0.8678033224733200,-0.7452180445068671,0.36780332247332004000,-0.37741472203354710000,
94134514,425000,2022-02-04,1955,1955,40.791327,-73.214521,ny,central islip,11722,145703,904,7405,0,0,0,0,,,,,,,,,,,,,,,,,,,,,,,,,,Suffolk County,36103,381253,381021,771541,0.4941448348175923,0.4938441379006430,0.0003006969169492,-0.00615586209935697900,-0.00585516518240769600,
90912104,465000,2009-08-24,1910,1910,40.630497,-73.938452,ny,brooklyn,11210,077600,1920,2000,0,0,0,0,,,,,,,,,,,,,,,,,,,,,,,,,,Kings County,36047,202772,703310,913246,0.2220343697098043,0.7701210845708604,-0.5480867148610560,0.27012108457086037000,-0.27796563029019570000,
167164265,349900,2024-12-06,2019,2019,42.687029,-77.230833,ny,middlesex,14507,150301,1242,132858,2,2,0,2,,,,,,,,,,,,,,,,,,,,,,,,,,Yates County,36123,6208,4219,10701,0.5801326978787029,0.3942622184842538,0.1858704793944491,-0.10573778151574620000,0.08013269787870292000,
91852768,850000,2016-09-13,1960,1960,40.748586,-73.976481,ny,new york,10016,008000,746,0,0,0,0,0,,,,,,,,,,,,,,,,,,,,,,,,,,New York County,36061,85185,603040,694904,0.1225852779664529,0.8678033224733200,-0.7452180445068671,0.36780332247332004000,-0.37741472203354710000,
89098532,1500000,2023-06-20,1984,1984,42.706133,-73.876503,ny,albany,12203,000401,183140,429066,0,0,0,0,,,,,,,,,,,,,,,,,,,,,,,,,,Albany County,36001,51081,99474,154101,0.3314774076741877,0.6455117098526291,-0.3140343021784413,0.14551170985262907000,-0.16852259232581230000,
89339878,0,1984-07-30,1930,1930,40.846962,-73.819515,ny,bronx,10465,027402,2719,5000,0,0,0,0,,,,,,,,,,,,,,,,,,,,,,,,,,Bronx County,36005,67740,355374,425715,0.1591205383883584,0.8347697403192277,-0.6756492019308693,0.33476974031922770000,-0.34087946161164160000,
90669783,421000,2004-07-05,1915,1915,40.646685,-74.007345,ny,brooklyn,11220,009600,2976,2003,0,0,0,0,,,,,,,,,,,,,,,,,,,,,,,,,,Kings County,36047,202772,703310,913246,0.2220343697098043,0.7701210845708604,-0.5480867148610560,0.27012108457086037000,-0.27796563029019570000,
93146963,67000,2009-08-11,1977,1977,42.816989,-73.400756,ny,petersburg,12138,052101,1149,6970,2,1,0,0,1,,,,,,,,,,,,,,,,,,,,,,,,,Rensselaer County,36083,36500,40969,79409,0.4596456321071919,0.5159238877205354,-0.0562782556133435,0.01592388772053543500,-0.04035436789280811000,
89500999,260000,2005-09-27,2005,2005,42.84468,-76.528825,ny,auburn,13021,041101,1230,134600,3,2,1,2,1,,,,,,,,,,,,,,,,,,,,,,,,,Cayuga County,36011,19512,16149,36421,0.5357348782295929,0.4433980395925427,0.0923368386370501,-0.05660196040745730000,0.03573487822959287000,
90314734,205500,2024-06-11,1920,1920,42.916367,-78.696523,ny,depew,14043,014501,1798,5175,4,1,1,2,,,,,,,,,,,,,,,,,,,,,,,,,,Erie County,36029,197527,267174,473021,0.4175861113988596,0.5648248175028170,-0.1472387061039573,0.06482481750281699000,-0.08241388860114040000,
94668721,82500,2022-05-24,1910,1910,43.04582,-77.100615,ny,newark,14513,021100,2306,7405,4,2,0,2,1,,,,,,,,,,,,,,,,,,,,,,,,,Wayne County,36117,26204,17456,44714,0.5860356935188085,0.3903922708771302,0.1956434226416782,-0.10960772912286981000,0.08603569351880846000,
90820036,535000,2018-01-18,1901,1901,40.672163,-73.877819,ny,brooklyn,11208,119400,2400,1800,0,0,0,0,,,,,,,,,,,,,,,,,,,,,,,,,,Kings County,36047,202772,703310,913246,0.2220343697098043,0.7701210845708604,-0.5480867148610560,0.27012108457086037000,-0.27796563029019570000,
94527620,67500,2017-12-22,1980,1980,42.072652,-74.06562,ny,saugerties,12477,950400,2022,69696,3,2,1,3,1,,,,,,,,,,,,,,,,,,,,,,,,,Ulster County,36111,37590,57970,97420,0.3858550605625128,0.5950523506466845,-0.2091972900841716,0.09505235064668449000,-0.11414493943748721000,
89856766,900000,2007-05-14,1950,1970,41.761115,-73.513907,ny,wassaic,12592,010000,1776,437342,4,2,0,3,,,,,,,,,,,,,,,,,,,,,,,,,,Dutchess County,36027,66872,81443,151122,0.4425034078426701,0.5389221953123966,-0.0964187874697264,0.03892219531239660000,-0.05749659215732988400,
90863666,0,2023-01-09,1930,2011,40.61155,-73.995607,ny,brooklyn,11214,027400,2690,3000,0,0,0,0,,,,,,,,,,,,,,,,,,,,,,,,,,Kings County,36047,202772,703310,913246,0.2220343697098043,0.7701210845708604,-0.5480867148610560,0.27012108457086037000,-0.27796563029019570000,
92728204,658900,2025-09-18,1996,1996,41.436681,-73.811996,ny,putnam valley,10579,011000,2288,36590,3,2,1,2,,,,,,,,,,,,,,,,,,,,,,,,,,Putnam County,36079,29283,24953,54989,0.5325246867555329,0.4537816654239939,0.0787430213315389,-0.04621833457600610400,0.03252468675553288000,
89694836,50000,2021-02-17,1971,1971,42.557476,-75.515892,ny,norwich,13815,970501,336,19166,0,0,0,2,,,,,,,,,,,,,,,,,,,,,,,,,,Chenango County,36017,13482,8290,22282,0.6050623821919038,0.3720491876851270,0.2330131945067767,-0.12795081231487299000,0.10506238219190378000,
93868834,300000,2009-09-11,1998,1998,40.958761,-72.938287,ny,rocky point,11778,158407,1340,6534,3,2,0,0,,,,,,,,,,,,,,,,,,,,,,,,,,Suffolk County,36103,381253,381021,771541,0.4941448348175923,0.4938441379006430,0.0003006969169492,-0.00615586209935697900,-0.00585516518240769600,
90418368,48000,2018-08-14,1983,1983,44.872846,-74.576249,ny,moira,12957,950301,720,603742,0,0,0,0,,,,,,,,,,,,,,,,,,,,,,,,,,Franklin County,36033,9668,9253,19268,0.5017645837658293,0.4802262819182064,0.0215383018476229,-0.01977371808179362300,0.00176458376582933060,
90032125,236000,2020-04-23,1900,1900,42.926924,-78.878716,ny,buffalo,14222,006301,2464,4350,6,2,0,0,,,,,,,,,,,,,,,,,,,,,,,,,,Erie County,36029,197527,267174,473021,0.4175861113988596,0.5648248175028170,-0.1472387061039573,0.06482481750281699000,-0.08241388860114040000,
92566831,65000,2006-10-05,1964,1964,43.3395,-78.3972,ny,lyndonville,14098,401200,620,87120,3,1,0,0,,,,,,,,,,,,,,,,,,,,,,,,,,Orleans County,36073,12126,5587,18154,0.6679519665087584,0.3077558664757078,0.3601961000330506,-0.19224413352429220000,0.16795196650875843000,
158864263,12500,2023-08-28,2014,2014,40.689225,-73.988064,ny,brooklyn,11201,004300,1705,27582,0,0,0,0,,,,,,,,,,,,,,,,,,,,,,,,,,Kings County,36047,202772,703310,913246,0.2220343697098043,0.7701210845708604,-0.5480867148610560,0.27012108457086037000,-0.27796563029019570000,
93475126,129900,2003-05-16,1974,1974,43.040817,-73.83084,ny,saratoga springs,12866,061304,2052,9583,3,2,1,2,,,,,,,,,,,,,,,,,,,,,,,,,,Saratoga County,36091,61305,68471,132655,0.4621386302815574,0.5161584561456409,-0.0540198258640834,0.01615845614564093000,-0.03786136971844262000,
91052245,329000,2021-05-12,1983,1983,42.942674,-75.845646,ny,cazenovia,13035,030501,1679,36155,5,3,0,2,1,,,,,,,,,,,,,,,,,,,,,,,,,Madison County,36053,18408,14807,34038,0.5408073329807862,0.4350138080968329,0.1057935248839532,-0.06498619190316712000,0.04080733298078620400,
158783665,2650000,2019-07-23,2013,2013,40.746236,-74.005622,ny,new york,10011,009901,1057,18400,0,0,0,0,,,,,,,,,,,,,,,,,,,,,,,,,,New York County,36061,85185,603040,694904,0.1225852779664529,0.8678033224733200,-0.7452180445068671,0.36780332247332004000,-0.37741472203354710000,
89086225,37000,2015-12-23,1900,1900,42.667079,-73.768969,ny,albany,12206,000700,2246,5192,6,2,0,3,,,,,,,,,,,,,,,,,,,,,,,,,,Albany County,36001,51081,99474,154101,0.3314774076741877,0.6455117098526291,-0.3140343021784413,0.14551170985262907000,-0.16852259232581230000,
90436085,689,2004-05-18,2003,2003,43.0671,-74.3405,ny,gloversville,12078,971000,896,30056,0,0,0,0,,,,,,,,,,,,,,,,,,,,,,,,,,Fulton County,36035,15378,7931,23744,0.6476583557951483,0.3340212264150943,0.3136371293800539,-0.16597877358490570000,0.14765835579514830000,
89740720,155000,2011-09-16,1876,1876,44.566208,-73.460633,ny,peru,12972,101902,1435,1703196,3,1,1,2,,,,,,,,,,,,,,,,,,,,,,,,,,Clinton County,36019,16514,18364,35437,0.4660101024353077,0.5182154245562548,-0.0522053221209470,0.01821542455625480000,-0.03398989756469228400,
92041280,110000,2023-03-29,1960,1960,43.310227,-78.856686,ny,wilson,14172,024302,900,6000,2,1,0,0,,,,,,,,,,,,,,,,,,,,,,,,,,Niagara County,36063,56068,46029,104080,0.5387009992313605,0.4422463489623366,0.0964546502690238,-0.05775365103766339000,0.03870099923136050000,
91228813,230000,2021-12-23,1964,1964,43.204385,-77.587867,ny,rochester,14617,010602,1749,12632,4,1,1,1,,,,,,,,,,,,,,,,,,,,,,,,,,Monroe County,36055,145661,225746,380983,0.3823293952748547,0.5925356249491447,-0.2102062296742899,0.09253562494914469000,-0.11767060472514529000,
89152481,108000,2000-03-13,1963,1963,42.63525,-73.779759,ny,albany,12209,002000,1930,3690,5,2,0,2,,,,,,,,,,,,,,,,,,,,,,,,,,Albany County,36001,51081,99474,154101,0.3314774076741877,0.6455117098526291,-0.3140343021784413,0.14551170985262907000,-0.16852259232581230000,
92193330,55000,2016-02-26,1925,1925,43.047875,-76.130165,ny,syracuse,13210,003400,2392,2310,7,3,0,0,,,,,,,,,,,,,,,,,,,,,,,,,,Onondaga County,36067,90619,138894,234735,0.3860480967899972,0.5917055402901144,-0.2056574435001171,0.09170554029011435000,-0.11395190321000281000,
94006917,250000,2017-08-21,1955,1955,40.830589,-73.07145,ny,ronkonkoma,11779,158605,1002,8712,3,1,0,0,,,,,,,,,,,,,,,,,,,,,,,,,,Suffolk County,36103,381253,381021,771541,0.4941448348175923,0.4938441379006430,0.0003006969169492,-0.00615586209935697900,-0.00585516518240769600,
93467584,255000,2010-08-04,1876,1876,43.081435,-73.778953,ny,saratoga springs,12866,061001,1699,6098,4,1,0,0,,,,,,,,,,,,,,,,,,,,,,,,,,Saratoga County,36091,61305,68471,132655,0.4621386302815574,0.5161584561456409,-0.0540198258640834,0.01615845614564093000,-0.03786136971844262000,
91781034,320000,2014-12-31,1959,1959,40.680616,-73.576912,ny,roosevelt,11575,414001,1751,5720,0,2,1,1,,,,,,,,,,,,,,,,,,,,,,,,,,Nassau County,36059,326716,396504,732756,0.4458728417099280,0.5411132764521888,-0.0952404347422607,0.04111327645218876000,-0.05412715829007197500,
91460236,2800000,2021-05-27,1966,1966,40.792879,-73.471124,ny,plainview,11803,519702,17720,43560,0,0,0,0,,,,,,,,,,,,,,,,,,,,,,,,,,Nassau County,36059,326716,396504,732756,0.4458728417099280,0.5411132764521888,-0.0952404347422607,0.04111327645218876000,-0.05412715829007197500,
91769861,142000,1996-08-27,1936,1936,40.673156,-73.595735,ny,roosevelt,11575,413900,1405,6360,0,1,1,1,1,,,,,,,,,,,,,,,,,,,,,,,,,Nassau County,36059,326716,396504,732756,0.4458728417099280,0.5411132764521888,-0.0952404347422607,0.04111327645218876000,-0.05412715829007197500,
94187184,3050000,2010-12-02,2007,2007,40.886573,-72.440704,ny,southampton,11968,190709,5833,77537,5,0,0,0,,,,,,,,,,,,,,,,,,,,,,,,,,Suffolk County,36103,381253,381021,771541,0.4941448348175923,0.4938441379006430,0.0003006969169492,-0.00615586209935697900,-0.00585516518240769600,
92795872,0,2001-08-23,1940,1940,40.73343,-73.893413,ny,maspeth,11378,049301,1496,1520,0,0,0,0,,,,,,,,,,,,,,,,,,,,,,,,,,Queens County,36081,212665,569038,787860,0.2699273982687279,0.7222577615312366,-0.4523303632625086,0.22225776153123655000,-0.23007260173127210000,
89862335,42000,2012-08-22,1940,1988,41.626182,-73.572149,ny,wingdale,12594,040003,940,9583,3,1,1,1,,,,,,,,,,,,,,,,,,,,,,,,,,Dutchess County,36027,66872,81443,151122,0.4425034078426701,0.5389221953123966,-0.0964187874697264,0.03892219531239660000,-0.05749659215732988400,
91581380,560000,2023-12-26,1974,1974,40.735572,-73.48316,ny,bethpage,11714,520001,1969,4000,0,2,0,1,,,,,,,,,,,,,,,,,,,,,,,,,,Nassau County,36059,326716,396504,732756,0.4458728417099280,0.5411132764521888,-0.0952404347422607,0.04111327645218876000,-0.05412715829007197500,
92021514,68700,1998-09-23,1867,1867,43.255587,-78.554764,ny,gasport,14067,024101,1434,1494108,3,2,0,0,,,,,,,,,,,,,,,,,,,,,,,,,,Niagara County,36063,56068,46029,104080,0.5387009992313605,0.4422463489623366,0.0964546502690238,-0.05775365103766339000,0.03870099923136050000,
92832520,0,2002-02-05,1920,1920,40.729473,-73.899534,ny,maspeth,11378,051500,1032,2400,0,0,0,0,,,,,,,,,,,,,,,,,,,,,,,,,,Queens County,36081,212665,569038,787860,0.2699273982687279,0.7222577615312366,-0.4523303632625086,0.22225776153123655000,-0.23007260173127210000,
169725499,305000,2025-04-14,1883,1883,43.141416,-77.590716,ny,rochester,14620,003600,1422,5663,3,1,0,1,,,,,,,,,,,,,,,,,,,,,,,,,,Monroe County,36055,145661,225746,380983,0.3823293952748547,0.5925356249491447,-0.2102062296742899,0.09253562494914469000,-0.11767060472514529000,
90041473,25000,2016-12-09,1920,1920,42.925168,-78.817441,ny,buffalo,14215,004100,1470,3600,5,1,0,2,,,,,,,,,,,,,,,,,,,,,,,,,,Erie County,36029,197527,267174,473021,0.4175861113988596,0.5648248175028170,-0.1472387061039573,0.06482481750281699000,-0.08241388860114040000,
91857447,565000,2024-10-16,1963,1988,40.743104,-73.996781,ny,new york,10011,008700,80977,7400,0,0,0,0,1,,,,,,,,,,,,,,,,,,,,,,,,,New York County,36061,85185,603040,694904,0.1225852779664529,0.8678033224733200,-0.7452180445068671,0.36780332247332004000,-0.37741472203354710000,
91527399,403000,2009-12-09,2008,2008,40.705981,-73.603472,ny,hempstead,11550,407204,2199,4000,0,3,0,1,,,,,,,,,,,,,,,,,,,,,,,,,,Nassau County,36059,326716,396504,732756,0.4458728417099280,0.5411132764521888,-0.0952404347422607,0.04111327645218876000,-0.05412715829007197500,
90108263,385000,2022-08-11,1965,1965,42.95659,-78.800595,ny,buffalo,14226,009501,2505,7200,6,2,1,2,,,,,,,,,,,,,,,,,,,,,,,,,,Erie County,36029,197527,267174,473021,0.4175861113988596,0.5648248175028170,-0.1472387061039573,0.06482481750281699000,-0.08241388860114040000,
93606190,85000,1994-07-01,1965,1970,42.777914,-73.945349,ny,schenectady,12303,032902,1152,10019,4,1,2,2,1,,,,,,,,,,,,,,,,,,,,,,,,,Schenectady County,36093,30741,42465,74826,0.4108331328682543,0.5675166386015557,-0.1566835057333013,0.06751663860155566000,-0.08916686713174571000,
92285129,130000,2005-06-10,1949,1949,43.135111,-76.256334,ny,baldwinsville,13027,011500,1857,19493,3,2,0,2,1,,,,,,,,,,,,,,,,,,,,,,,,,Onondaga County,36067,90619,138894,234735,0.3860480967899972,0.5917055402901144,-0.2056574435001171,0.09170554029011435000,-0.11395190321000281000,
91182786,0,1996-08-13,1900,1900,43.153989,-77.657353,ny,rochester,14611,008702,1144,6250,3,1,0,0,,,,,,,,,,,,,,,,,,,,,,,,,,Monroe County,36055,145661,225746,380983,0.3823293952748547,0.5925356249491447,-0.2102062296742899,0.09253562494914469000,-0.11767060472514529000,
167399421,235000,2002-12-06,1989,1989,41.343411,-74.170139,ny,monroe,10950,015010,2650,436,3,2,0,0,,,,,,,,,,,,,,,,,,,,,,,,,,Orange County,36071,84996,84684,172099,0.4938785234080384,0.4920656133969401,0.0018129100110982,-0.00793438660305989500,-0.00612147659196160500,
92061356,110000,2022-01-19,1959,1959,43.222159,-75.435404,ny,rome,13440,022400,1000,9148,3,1,0,1,,,,,,,,,,,,,,,,,,,,,,,,,,Oneida County,36065,57180,41567,100746,0.5675659579536656,0.4125920632084648,0.1549738947452007,-0.08740793679153519000,0.06756595795366560000,
90288907,100000,2004-04-02,1970,1970,42.842975,-78.628821,ny,elma,14059,014101,1418,51401,4,1,1,2,1,,,,,,,,,,,,,,,,,,,,,,,,,Erie County,36029,197527,267174,473021,0.4175861113988596,0.5648248175028170,-0.1472387061039573,0.06482481750281699000,-0.08241388860114040000,
89476838,14000,1997-12-05,1997,1997,42.432242,-78.53088,ny,machias,14101,960200,1568,209088,3,2,0,1,,,,,,,,,,,,,,,,,,,,,,,,,,Cattaraugus County,36009,22155,11879,34845,0.6358157554885924,0.3409097431482278,0.2949060123403645,-0.15909025685177220000,0.13581575548859237000,
93192762,575000,2020-03-05,1923,1923,40.628671,-74.10694,ny,staten island,10310,012100,1068,3330,0,0,4,0,,,,,,,,,,,,,,,,,,,,,,,,,,Richmond County,36085,123320,90997,216153,0.5705218063131208,0.4209842102584743,0.1495375960546464,-0.07901578974152568000,0.07052180631312077000,
89718205,140650,2011-06-29,1970,1985,44.698628,-73.554179,ny,morrisonville,12962,100700,1522,12113,4,1,1,0,1,,,,,,,,,,,,,,,,,,,,,,,,,Clinton County,36019,16514,18364,35437,0.4660101024353077,0.5182154245562548,-0.0522053221209470,0.01821542455625480000,-0.03398989756469228400,
93846442,260000,2009-09-21,1948,1948,40.918912,-72.849127,ny,ridge,11961,158412,727,6098,2,1,0,0,1,,,,,,,,,,,,,,,,,,,,,,,,,Suffolk County,36103,381253,381021,771541,0.4941448348175923,0.4938441379006430,0.0003006969169492,-0.00615586209935697900,-0.00585516518240769600,
91998934,60000,2016-07-25,1920,1920,43.049906,-78.888038,ny,north tonawanda,14120,022901,1232,4480,3,1,0,1,,,,,,,,,,,,,,,,,,,,,,,,,,Niagara County,36063,56068,46029,104080,0.5387009992313605,0.4422463489623366,0.0964546502690238,-0.05775365103766339000,0.03870099923136050000,
91997110,168000,2023-09-14,1942,1942,43.086147,-78.966743,ny,niagara falls,14304,022300,1237,8160,3,1,0,3,,,,,,,,,,,,,,,,,,,,,,,,,,Niagara County,36063,56068,46029,104080,0.5387009992313605,0.4422463489623366,0.0964546502690238,-0.05775365103766339000,0.03870099923136050000,
91238545,325000,2024-09-26,1910,2018,43.365008,-77.990947,ny,hamlin,14464,015102,1056,3049,3,1,0,0,1,,,,,,,,,,,,,,,,,,,,,,,,,Monroe County,36055,145661,225746,380983,0.3823293952748547,0.5925356249491447,-0.2102062296742899,0.09253562494914469000,-0.11767060472514529000,
91118049,125000,2010-06-30,1917,1917,43.19001,-77.632977,ny,rochester,14613,002100,2969,9338,4,1,1,2,1,,,,,,,,,,,,,,,,,,,,,,,,,Monroe County,36055,145661,225746,380983,0.3823293952748547,0.5925356249491447,-0.2102062296742899,0.09253562494914469000,-0.11767060472514529000,
93291575,190000,2002-01-10,1990,1990,40.547522,-74.21768,ny,staten island,10309,020805,2320,871,0,0,4,0,,,,,,,,,,,,,,,,,,,,,,,,,,Richmond County,36085,123320,90997,216153,0.5705218063131208,0.4209842102584743,0.1495375960546464,-0.07901578974152568000,0.07052180631312077000,
93119506,271500,2022-12-29,1930,1930,42.695334,-73.636165,ny,wynantskill,12198,052305,1662,8712,3,2,0,1,,,,,,,,,,,,,,,,,,,,,,,,,,Rensselaer County,36083,36500,40969,79409,0.4596456321071919,0.5159238877205354,-0.0562782556133435,0.01592388772053543500,-0.04035436789280811000,
91696522,360000,2004-02-02,1948,1948,40.695327,-73.514195,ny,wantagh,11793,409700,1706,6000,0,2,0,0,1,,,,,,,,,,,,,,,,,,,,,,,,,Nassau County,36059,326716,396504,732756,0.4458728417099280,0.5411132764521888,-0.0952404347422607,0.04111327645218876000,-0.05412715829007197500,
89124328,107549,1990-03-01,1991,1991,42.479247,-73.810733,ny,ravena,12143,014402,1656,15246,3,2,1,1,,,,,,,,,,,,,,,,,,,,,,,,,,Albany County,36001,51081,99474,154101,0.3314774076741877,0.6455117098526291,-0.3140343021784413,0.14551170985262907000,-0.16852259232581230000,
92327729,508000,2021-07-23,1880,1985,42.885024,-76.415272,ny,skaneateles,13152,016700,2342,88427,4,2,1,0,1,,,,,,,,,,,,,,,,,,,,,,,,,Onondaga County,36067,90619,138894,234735,0.3860480967899972,0.5917055402901144,-0.2056574435001171,0.09170554029011435000,-0.11395190321000281000,
92810122,625000,2012-08-07,1930,1930,40.749121,-73.901297,ny,woodside,11377,026100,1720,2012,0,0,0,0,,,,,,,,,,,,,,,,,,,,,,,,,,Queens County,36081,212665,569038,787860,0.2699273982687279,0.7222577615312366,-0.4523303632625086,0.22225776153123655000,-0.23007260173127210000,
162378273,620000,2011-06-03,1935,1935,40.612644,-74.026177,ny,brooklyn,11209,015200,1855,2570,0,0,0,0,,,,,,,,,,,,,,,,,,,,,,,,,,Kings County,36047,202772,703310,913246,0.2220343697098043,0.7701210845708604,-0.5480867148610560,0.27012108457086037000,-0.27796563029019570000,
94685278,85000,2000-12-18,1917,1940,43.223618,-77.193485,ny,williamson,14589,020402,1985,13939,3,1,1,2,,,,,,,,,,,,,,,,,,,,,,,,,,Wayne County,36117,26204,17456,44714,0.5860356935188085,0.3903922708771302,0.1956434226416782,-0.10960772912286981000,0.08603569351880846000,
94821136,622500,2015-08-28,1988,1988,41.009578,-73.862936,ny,dobbs ferry,10522,010500,2153,2614,0,3,0,2,,,,,,,,,,,,,,,,,,,,,,,,,,Westchester County,36119,144713,312371,462122,0.3131489087297294,0.6759492082177434,-0.3628002994880140,0.17594920821774340000,-0.18685109127027060000,
93819808,440000,2021-09-15,1937,1937,40.738953,-73.354618,ny,west babylon,11704,122502,1053,14000,0,1,0,0,,,,,,,,,,,,,,,,,,,,,,,,,,Suffolk County,36103,381253,381021,771541,0.4941448348175923,0.4938441379006430,0.0003006969169492,-0.00615586209935697900,-0.00585516518240769600,
90334456,89250,2006-12-20,1953,1953,42.992046,-78.824721,ny,tonawanda,14150,007902,1337,9380,2,1,0,1,1,,,,,,,,,,,,,,,,,,,,,,,,,Erie County,36029,197527,267174,473021,0.4175861113988596,0.5648248175028170,-0.1472387061039573,0.06482481750281699000,-0.08241388860114040000,
89996430,8500,2021-10-27,1900,1900,42.880409,-78.841912,ny,buffalo,14206,001700,1264,3049,4,1,0,0,,,,,,,,,,,,,,,,,,,,,,,,,,Erie County,36029,197527,267174,473021,0.4175861113988596,0.5648248175028170,-0.1472387061039573,0.06482481750281699000,-0.08241388860114040000,
90185054,177000,2014-07-03,1954,1954,42.990867,-78.8435,ny,tonawanda,14150,007903,1919,6000,4,2,0,2,1,,,,,,,,,,,,,,,,,,,,,,,,,Erie County,36029,197527,267174,473021,0.4175861113988596,0.5648248175028170,-0.1472387061039573,0.06482481750281699000,-0.08241388860114040000,
92248396,75260,2005-07-01,1950,1950,43.132983,-76.144721,ny,syracuse,13212,010800,896,7440,3,1,0,0,,,,,,,,,,,,,,,,,,,,,,,,,,Onondaga County,36067,90619,138894,234735,0.3860480967899972,0.5917055402901144,-0.2056574435001171,0.09170554029011435000,-0.11395190321000281000,
94566621,164900,2015-03-24,2014,2014,43.296628,-73.651554,ny,glens falls,12801,070100,1173,7553,3,2,0,1,,,,,,,,,,,,,,,,,,,,,,,,,,Warren County,36113,17699,17642,36131,0.4898563560377515,0.4882787633887797,0.0015775926489717,-0.01172123661122032000,-0.01014364396224848300,
89517272,45750,2003-08-29,1900,1975,42.714448,-76.426418,ny,moravia,13118,040800,2564,11435,5,2,0,0,,,,,,,,,,,,,,,,,,,,,,,,,,Cayuga County,36011,19512,16149,36421,0.5357348782295929,0.4433980395925427,0.0923368386370501,-0.05660196040745730000,0.03573487822959287000,
91840768,600000,2011-01-28,1920,1986,40.734349,-74.000079,ny,new york,10014,007100,1500,1500,0,0,0,0,,,,,,,,,,,,,,,,,,,,,,,,,,New York County,36061,85185,603040,694904,0.1225852779664529,0.8678033224733200,-0.7452180445068671,0.36780332247332004000,-0.37741472203354710000,
93529952,475000,2025-08-12,1964,1964,42.849615,-73.801316,ny,clifton park,12065,062503,2310,21344,5,2,1,2,1,,,,,,,,,,,,,,,,,,,,,,,,,Saratoga County,36091,61305,68471,132655,0.4621386302815574,0.5161584561456409,-0.0540198258640834,0.01615845614564093000,-0.03786136971844262000,
90989985,770000,2014-08-08,,,40.577539,-73.958689,ny,brooklyn,11235,061002,998,0,0,0,0,0,,,,,,,,,,,,,,,,,,,,,,,,,,Kings County,36047,202772,703310,913246,0.2220343697098043,0.7701210845708604,-0.5480867148610560,0.27012108457086037000,-0.27796563029019570000,
91121461,0,1996-11-07,1900,1900,43.182404,-77.636786,ny,rochester,14613,002200,1764,3137,4,1,0,1,,,,,,,,,,,,,,,,,,,,,,,,,,Monroe County,36055,145661,225746,380983,0.3823293952748547,0.5925356249491447,-0.2102062296742899,0.09253562494914469000,-0.11767060472514529000,
94752768,995000,2007-09-24,1914,1914,40.931889,-73.7903,ny,new rochelle,10804,006700,4859,23522,7,4,0,0,,,,,,,,,,,,,,,,,,,,,,,,,,Westchester County,36119,144713,312371,462122,0.3131489087297294,0.6759492082177434,-0.3628002994880140,0.17594920821774340000,-0.18685109127027060000,
89200435,99500,2009-10-01,2000,2000,42.329775,-78.086741,ny,belfast,14711,951301,2432,862488,2,1,0,0,,,,,,,,,,,,,,,,,,,,,,,,,,Allegany County,36003,14135,6048,20782,0.6801559041478202,0.2910210759310942,0.3891348282167260,-0.20897892406890578000,0.18015590414782023000,
92476040,444194,2012-08-31,2012,2012,41.51056,-74.234623,ny,montgomery,12549,010801,2265,47916,4,2,1,2,1,,,,,,,,,,,,,,,,,,,,,,,,,Orange County,36071,84996,84684,172099,0.4938785234080384,0.4920656133969401,0.0018129100110982,-0.00793438660305989500,-0.00612147659196160500,
90320407,308000,2005-04-08,1998,1998,42.929132,-78.690527,ny,lancaster,14086,014209,3400,13068,4,2,1,2,1,,,,,,,,,,,,,,,,,,,,,,,,,Erie County,36029,197527,267174,473021,0.4175861113988596,0.5648248175028170,-0.1472387061039573,0.06482481750281699000,-0.08241388860114040000,
92018051,95000,1995-07-31,1991,1991,43.101721,-78.666345,ny,lockport,14094,023404,1608,32911,3,2,0,0,,,,,,,,,,,,,,,,,,,,,,,,,,Niagara County,36063,56068,46029,104080,0.5387009992313605,0.4422463489623366,0.0964546502690238,-0.05775365103766339000,0.03870099923136050000,
94689487,60000,1997-07-28,1962,1962,43.239022,-77.322402,ny,ontario,14519,020103,1736,53579,3,2,0,3,1,,,,,,,,,,,,,,,,,,,,,,,,,Wayne County,36117,26204,17456,44714,0.5860356935188085,0.3903922708771302,0.1956434226416782,-0.10960772912286981000,0.08603569351880846000,
91295144,160000,2020-10-21,1955,1955,43.024198,-77.612046,ny,henrietta,14467,013207,1316,22538,3,1,0,2,,,,,,,,,,,,,,,,,,,,,,,,,,Monroe County,36055,145661,225746,380983,0.3823293952748547,0.5925356249491447,-0.2102062296742899,0.09253562494914469000,-0.11767060472514529000,
94949591,687000,2017-07-06,1960,1996,41.014683,-73.68107,ny,port chester,10573,008301,1798,10898,3,2,0,1,,,,,,,,,,,,,,,,,,,,,,,,,,Westchester County,36119,144713,312371,462122,0.3131489087297294,0.6759492082177434,-0.3628002994880140,0.17594920821774340000,-0.18685109127027060000,
93048162,610000,2023-08-07,1920,1920,40.673641,-73.860691,ny,howard beach,11414,006202,2016,2018,0,0,0,0,,,,,,,,,,,,,,,,,,,,,,,,,,Queens County,36081,212665,569038,787860,0.2699273982687279,0.7222577615312366,-0.4523303632625086,0.22225776153123655000,-0.23007260173127210000,
94963783,75900,2002-10-16,1900,1900,42.628783,-78.048417,ny,castile,14427,970700,1526,11418,3,2,0,0,,,,,,,,,,,,,,,,,,,,,,,,,,Wyoming County,36121,13898,5073,19399,0.7164286818908191,0.2615083251714006,0.4549203567194185,-0.23849167482859940000,0.21642868189081910000,
94158768,224000,1999-09-21,1971,1971,40.852813,-73.13573,ny,nesconset,11767,135402,2276,10019,4,1,1,3,1,,,,,,,,,,,,,,,,,,,,,,,,,Suffolk County,36103,381253,381021,771541,0.4941448348175923,0.4938441379006430,0.0003006969169492,-0.00615586209935697900,-0.00585516518240769600,
94211833,775000,2021-02-03,1999,1999,40.855194,-72.548556,ny,hampton bays,11946,190603,1232,17860,3,2,0,0,1,,,,,,,,,,,,,,,,,,,,,,,,,Suffolk County,36103,381253,381021,771541,0.4941448348175923,0.4938441379006430,0.0003006969169492,-0.00615586209935697900,-0.00585516518240769600,
93442724,30000,2024-02-29,1920,1920,44.802863,-74.990702,ny,norfolk,13667,490600,925,9975,1,1,0,6,,,,,,,,,,,,,,,,,,,,,,,,,,St. Lawrence County,36089,24608,19361,44907,0.5479769300999844,0.4311354577237402,0.1168414723762442,-0.06886454227625982000,0.04797693009998438000,
92736639,3360000,2016-02-25,1925,2008,40.779491,-73.908837,ny,astoria,11105,011100,6250,5000,0,0,0,0,,,,,,,,,,,,,,,,,,,,,,,,,,Queens County,36081,212665,569038,787860,0.2699273982687279,0.7222577615312366,-0.4523303632625086,0.22225776153123655000,-0.23007260173127210000,
89650801,48000,2025-03-07,1960,1960,42.055579,-76.830479,ny,pine city,14871,011102,884,10208,3,1,0,1,,,,,,,,,,,,,,,,,,,,,,,,,,Chemung County,36015,21922,16636,39410,0.5562547576757169,0.4221263638670388,0.1341283938086780,-0.07787363613296122000,0.05625475767571686000,
90496754,85000,2018-10-23,1986,1986,42.2391,-74.3146,ny,ashland,12407,080402,1148,222156,3,2,0,2,,,,,,,,,,,,,,,,,,,,,,,,,,Greene County,36039,14271,10346,25194,0.5664443915217909,0.4106533301579741,0.1557910613638168,-0.08934666984202588000,0.06644439152179094000,
90865965,0,2021-11-26,1931,1931,40.658051,-73.938894,ny,brooklyn,11203,087401,2308,2600,0,0,0,0,,,,,,,,,,,,,,,,,,,,,,,,,,Kings County,36047,202772,703310,913246,0.2220343697098043,0.7701210845708604,-0.5480867148610560,0.27012108457086037000,-0.27796563029019570000,
90676971,550000,2016-08-24,1909,1909,40.677036,-73.982753,ny,brooklyn,11215,013300,510,7465,0,0,0,0,,,,,,,,,,,,,,,,,,,,,,,,,,Kings County,36047,202772,703310,913246,0.2220343697098043,0.7701210845708604,-0.5480867148610560,0.27012108457086037000,-0.27796563029019570000,
93119063,210000,2018-04-05,2010,2010,42.677693,-73.68763,ny,troy,12180,052306,1641,418815,2,2,0,1,1,,,,,,,,,,,,,,,,,,,,,,,,,Rensselaer County,36083,36500,40969,79409,0.4596456321071919,0.5159238877205354,-0.0562782556133435,0.01592388772053543500,-0.04035436789280811000,
93052231,390000,2018-12-10,1945,1945,40.683766,-73.778622,ny,jamaica,11434,028400,1300,2000,0,0,0,0,,,,,,,,,,,,,,,,,,,,,,,,,,Queens County,36081,212665,569038,787860,0.2699273982687279,0.7222577615312366,-0.4523303632625086,0.22225776153123655000,-0.23007260173127210000,
91655843,216000,1998-07-16,1958,1958,40.632421,-73.601956,ny,baldwin,11510,413803,2131,6000,0,2,1,2,,,,,,,,,,,,,,,,,,,,,,,,,,Nassau County,36059,326716,396504,732756,0.4458728417099280,0.5411132764521888,-0.0952404347422607,0.04111327645218876000,-0.05412715829007197500,
90158234,210000,2016-01-25,1982,1982,43.015735,-78.686164,ny,east amherst,14051,014605,2228,21250,3,2,1,2,1,,,,,,,,,,,,,,,,,,,,,,,,,Erie County,36029,197527,267174,473021,0.4175861113988596,0.5648248175028170,-0.1472387061039573,0.06482481750281699000,-0.08241388860114040000,
89884532,360000,2014-01-14,1976,1976,41.501827,-73.838447,ny,hopewell junction,12533,050204,1929,43560,3,2,0,2,1,,,,,,,,,,,,,,,,,,,,,,,,,Dutchess County,36027,66872,81443,151122,0.4425034078426701,0.5389221953123966,-0.0964187874697264,0.03892219531239660000,-0.05749659215732988400,
91253433,102000,2013-05-30,1960,1960,43.293534,-77.794987,ny,hilton,14468,014806,1225,10019,3,1,0,2,,,,,,,,,,,,,,,,,,,,,,,,,,Monroe County,36055,145661,225746,380983,0.3823293952748547,0.5925356249491447,-0.2102062296742899,0.09253562494914469000,-0.11767060472514529000,
92446889,222000,1995-02-22,1959,1971,41.330766,-74.221024,ny,monroe,10950,013302,3360,104544,4,2,1,1,1,,,,,,,,,,,,,,,,,,,,,,,,,Orange County,36071,84996,84684,172099,0.4938785234080384,0.4920656133969401,0.0018129100110982,-0.00793438660305989500,-0.00612147659196160500,
89907121,440000,2020-06-19,1999,1999,41.620852,-73.692461,ny,poughquag,12570,020005,1893,14810,3,3,0,2,1,,,,,,,,,,,,,,,,,,,,,,,,,Dutchess County,36027,66872,81443,151122,0.4425034078426701,0.5389221953123966,-0.0964187874697264,0.03892219531239660000,-0.05749659215732988400,
90925149,575000,2015-04-10,1920,1920,40.581137,-73.958209,ny,brooklyn,11235,061003,2400,1125,0,0,0,0,,,,,,,,,,,,,,,,,,,,,,,,,,Kings County,36047,202772,703310,913246,0.2220343697098043,0.7701210845708604,-0.5480867148610560,0.27012108457086037000,-0.27796563029019570000,
89457951,37000,2019-03-14,1882,1940,42.167176,-78.340226,ny,hinsdale,14743,961000,1416,328007,3,1,0,0,,,,,,,,,,,,,,,,,,,,,,,,,,Cattaraugus County,36009,22155,11879,34845,0.6358157554885924,0.3409097431482278,0.2949060123403645,-0.15909025685177220000,0.13581575548859237000,
91221897,164000,2005-02-23,1955,1955,43.230359,-77.584401,ny,rochester,14617,010500,1564,27007,3,2,1,2,1,,,,,,,,,,,,,,,,,,,,,,,,,Monroe County,36055,145661,225746,380983,0.3823293952748547,0.5925356249491447,-0.2102062296742899,0.09253562494914469000,-0.11767060472514529000,
94430230,261325,2022-06-20,1966,1966,42.049585,-76.122119,ny,apalachin,13732,020402,2100,13068,4,2,1,2,1,,,,,,,,,,,,,,,,,,,,,,,,,Tioga County,36107,14791,9634,25044,0.5906005430442421,0.3846829579939307,0.2059175850503114,-0.11531704200606929000,0.09060054304424214000,
90626460,10000,1997-12-15,1922,1922,43.968773,-75.899131,ny,watertown,13601,062100,966,2088,2,1,0,0,,,,,,,,,,,,,,,,,,,,,,,,,,Jefferson County,36045,25629,17307,43848,0.5844964422550629,0.3947044334975369,0.1897920087575260,-0.10529556650246308000,0.08449644225506292000,
93260729,560000,2018-12-20,1988,1988,40.552995,-74.132917,ny,staten island,10306,013204,1420,3000,0,0,4,0,,,,,,,,,,,,,,,,,,,,,,,,,,Richmond County,36085,123320,90997,216153,0.5705218063131208,0.4209842102584743,0.1495375960546464,-0.07901578974152568000,0.07052180631312077000,
94481913,96500,1999-08-11,1980,1980,41.8268,-73.9653,ny,esopus,12429,952600,3620,24829,0,0,0,0,,,,,,,,,,,,,,,,,,,,,,,,,,Ulster County,36111,37590,57970,97420,0.3858550605625128,0.5950523506466845,-0.2091972900841716,0.09505235064668449000,-0.11414493943748721000,
93992972,228000,2002-09-24,1950,1950,40.761127,-72.946738,ny,bellport,11713,159300,1722,10890,3,2,0,0,,,,,,,,,,,,,,,,,,,,,,,,,,Suffolk County,36103,381253,381021,771541,0.4941448348175923,0.4938441379006430,0.0003006969169492,-0.00615586209935697900,-0.00585516518240769600,
92885783,300000,2016-03-15,1945,1945,40.666891,-73.731,ny,rosedale,11422,063800,963,4200,0,0,0,0,,,,,,,,,,,,,,,,,,,,,,,,,,Queens County,36081,212665,569038,787860,0.2699273982687279,0.7222577615312366,-0.4523303632625086,0.22225776153123655000,-0.23007260173127210000,
92024237,240000,2025-07-03,1930,1930,43.077976,-78.967713,ny,niagara falls,14304,022200,1536,6250,3,1,0,1,,,,,,,,,,,,,,,,,,,,,,,,,,Niagara County,36063,56068,46029,104080,0.5387009992313605,0.4422463489623366,0.0964546502690238,-0.05775365103766339000,0.03870099923136050000,
93312684,270000,2025-05-08,1984,1959,41.133573,-73.944105,ny,valley cottage,10989,011101,640,32670,0,1,0,1,1,,,,,,,,,,,,,,,,,,,,,,,,,Rockland County,36087,73186,75802,150369,0.4867093616370395,0.5041065645179525,-0.0173972028809130,0.00410656451795254900,-0.01329063836296051600,
89930169,325000,2013-09-20,1988,2000,41.647523,-73.636714,ny,wingdale,12594,180001,3136,84942,4,2,1,2,1,,,,,,,,,,,,,,,,,,,,,,,,,Dutchess County,36027,66872,81443,151122,0.4425034078426701,0.5389221953123966,-0.0964187874697264,0.03892219531239660000,-0.05749659215732988400,
90213812,339000,2022-12-16,2000,2000,42.745282,-78.889102,ny,hamburg,14075,013101,1744,10980,4,1,1,2,1,,,,,,,,,,,,,,,,,,,,,,,,,Erie County,36029,197527,267174,473021,0.4175861113988596,0.5648248175028170,-0.1472387061039573,0.06482481750281699000,-0.08241388860114040000,
93964171,254000,2006-02-01,1940,1940,40.825697,-73.115474,ny,ronkonkoma,11779,158608,864,4792,1,1,0,0,,,,,,,,,,,,,,,,,,,,,,,,,,Suffolk County,36103,381253,381021,771541,0.4941448348175923,0.4938441379006430,0.0003006969169492,-0.00615586209935697900,-0.00585516518240769600,
90486570,66000,1999-02-02,1977,1985,42.990969,-77.996633,ny,le roy,14482,951200,1224,52272,4,1,0,1,,,,,,,,,,,,,,,,,,,,,,,,,,Genesee County,36037,18876,9625,29217,0.6460622240476435,0.3294314953622890,0.3166307286853544,-0.17056850463771100000,0.14606222404764346000,
91835886,36175,2019-11-19,1909,1909,40.7301,-73.992382,ny,new york,10003,005700,147773,15030,0,0,0,0,1,,,,,,,,,,,,,,,,,,,,,,,,,New York County,36061,85185,603040,694904,0.1225852779664529,0.8678033224733200,-0.7452180445068671,0.36780332247332004000,-0.37741472203354710000,
91592077,611000,2007-06-06,1959,1959,40.660065,-73.684796,ny,lynbrook,11563,411800,1713,6460,0,2,1,1,,,,,,,,,,,,,,,,,,,,,,,,,,Nassau County,36059,326716,396504,732756,0.4458728417099280,0.5411132764521888,-0.0952404347422607,0.04111327645218876000,-0.05412715829007197500,
91528002,349800,2017-01-10,1925,1925,40.706035,-73.612728,ny,hempstead,11550,407201,1789,6600,0,1,1,1,1,,,,,,,,,,,,,,,,,,,,,,,,,Nassau County,36059,326716,396504,732756,0.4458728417099280,0.5411132764521888,-0.0952404347422607,0.04111327645218876000,-0.05412715829007197500,
90222116,315000,2024-05-08,1965,1965,42.88695,-78.683195,ny,lancaster,14086,014300,1722,6840,4,1,1,1,1,,,,,,,,,,,,,,,,,,,,,,,,,Erie County,36029,197527,267174,473021,0.4175861113988596,0.5648248175028170,-0.1472387061039573,0.06482481750281699000,-0.08241388860114040000,
153606097,32500,2011-12-07,1879,1879,43.115782,-74.006327,ny,middle grove,12850,060506,1152,30928,3,1,0,4,,,,,,,,,,,,,,,,,,,,,,,,,,Saratoga County,36091,61305,68471,132655,0.4621386302815574,0.5161584561456409,-0.0540198258640834,0.01615845614564093000,-0.03786136971844262000,
92018781,290000,2020-02-19,1991,1991,43.176303,-78.830443,ny,lockport,14094,024303,1923,52272,3,1,1,2,,,,,,,,,,,,,,,,,,,,,,,,,,Niagara County,36063,56068,46029,104080,0.5387009992313605,0.4422463489623366,0.0964546502690238,-0.05775365103766339000,0.03870099923136050000,
90060305,140000,2022-03-04,1914,1914,42.963078,-78.898902,ny,buffalo,14207,005801,1040,3600,3,1,0,1,,,,,,,,,,,,,,,,,,,,,,,,,,Erie County,36029,197527,267174,473021,0.4175861113988596,0.5648248175028170,-0.1472387061039573,0.06482481750281699000,-0.08241388860114040000,
92475168,750000,2024-12-20,2009,2009,41.309694,-74.203954,ny,monroe,10950,014202,2961,20034,5,2,1,2,1,,,,,,,,,,,,,,,,,,,,,,,,,Orange County,36071,84996,84684,172099,0.4938785234080384,0.4920656133969401,0.0018129100110982,-0.00793438660305989500,-0.00612147659196160500,
93158603,48240,2017-05-31,1830,1830,42.584002,-73.484749,ny,averill park,12018,052601,1928,121532,3,2,0,0,,,,,,,,,,,,,,,,,,,,,,,,,,Rensselaer County,36083,36500,40969,79409,0.4596456321071919,0.5159238877205354,-0.0562782556133435,0.01592388772053543500,-0.04035436789280811000,
92666548,590000,2018-10-09,1990,1990,42.44677,-75.027194,ny,oneonta,13820,590800,64588,376358,0,0,0,0,,,,,,,,,,,,,,,,,,,,,,,,,,Otsego County,36077,14382,12975,28008,0.5134961439588689,0.4632604970008569,0.0502356469580119,-0.03673950299914308000,0.01349614395886889000,
89239549,950000,2025-10-20,1909,1909,40.815234,-73.900558,ny,bronx,10455,008300,6000,2688,0,0,0,0,,,,,,,,,,,,,,,,,,,,,,,,,,Bronx County,36005,67740,355374,425715,0.1591205383883584,0.8347697403192277,-0.6756492019308693,0.33476974031922770000,-0.34087946161164160000,
93034646,344000,2005-03-11,1930,1930,40.724266,-73.75317,ny,queens village,11427,054800,1580,3000,0,0,0,0,,,,,,,,,,,,,,,,,,,,,,,,,,Queens County,36081,212665,569038,787860,0.2699273982687279,0.7222577615312366,-0.4523303632625086,0.22225776153123655000,-0.23007260173127210000,
90571283,5000,2000-09-12,1960,1960,0,0,ny,,,,208,5227,0,0,0,0,,,,,,,,,,,,,,,,,,,,,,,,,,Herkimer County,36043,18870,9937,29319,0.6436099457689552,0.3389269756812988,0.3046829700876564,-0.16107302431870119000,0.14360994576895525000,
91508322,2350000,1996-06-10,1900,1900,40.901701,-73.521411,ny,oyster bay,11771,517902,6718,83635,0,0,0,0,,,,,,,,,,,,,,,,,,,,,,,,,,Nassau County,36059,326716,396504,732756,0.4458728417099280,0.5411132764521888,-0.0952404347422607,0.04111327645218876000,-0.05412715829007197500,
93389446,350000,2009-11-24,1965,2014,41.067348,-74.002378,ny,pearl river,10965,012800,1674,11326,3,2,0,1,,,,,,,,,,,,,,,,,,,,,,,,,,Rockland County,36087,73186,75802,150369,0.4867093616370395,0.5041065645179525,-0.0173972028809130,0.00410656451795254900,-0.01329063836296051600,
93104786,250000,2022-08-04,1996,1996,42.780539,-73.658753,ny,troy,12182,041400,1698,8276,3,3,0,2,1,,,,,,,,,,,,,,,,,,,,,,,,,Rensselaer County,36083,36500,40969,79409,0.4596456321071919,0.5159238877205354,-0.0562782556133435,0.01592388772053543500,-0.04035436789280811000,
93430426,485000,2020-12-18,2010,2010,44.962571,-74.800519,ny,massena,13662,490300,3184,775368,2,2,0,7,1,,,,,,,,,,,,,,,,,,,,,,,,,St. Lawrence County,36089,24608,19361,44907,0.5479769300999844,0.4311354577237402,0.1168414723762442,-0.06886454227625982000,0.04797693009998438000,
93895162,315000,2014-11-21,1953,1953,40.862234,-73.088581,ny,centereach,11720,158103,1740,17860,4,1,0,0,,,,,,,,,,,,,,,,,,,,,,,,,,Suffolk County,36103,381253,381021,771541,0.4941448348175923,0.4938441379006430,0.0003006969169492,-0.00615586209935697900,-0.00585516518240769600,
94915621,417000,1998-09-25,1938,1938,40.968319,-73.715802,ny,harrison,10528,008404,1852,9583,6,2,0,3,,,,,,,,,,,,,,,,,,,,,,,,,,Westchester County,36119,144713,312371,462122,0.3131489087297294,0.6759492082177434,-0.3628002994880140,0.17594920821774340000,-0.18685109127027060000,
92399112,515000,2019-02-01,2003,2003,42.747806,-77.385867,ny,naples,14512,052101,2128,1925352,2,2,0,4,1,,,,,,,,,,,,,,,,,,,,,,,,,Ontario County,36069,29039,29025,59674,0.4866273418909407,0.4863927338539397,0.0002346080370010,-0.01360726614606028200,-0.01337265810905929900,
89935839,749708,2008-11-12,2008,2008,41.576666,-73.873089,ny,wappingers falls,12590,190204,4111,41382,4,3,1,3,1,,,,,,,,,,,,,,,,,,,,,,,,,Dutchess County,36027,66872,81443,151122,0.4425034078426701,0.5389221953123966,-0.0964187874697264,0.03892219531239660000,-0.05749659215732988400,
91163660,15000,2007-05-25,1920,1920,43.17507,-77.615683,ny,rochester,14621,005000,1692,3604,3,1,0,0,,,,,,,,,,,,,,,,,,,,,,,,,,Monroe County,36055,145661,225746,380983,0.3823293952748547,0.5925356249491447,-0.2102062296742899,0.09253562494914469000,-0.11767060472514529000,
89095929,70000,2007-05-25,1920,1920,42.643832,-73.754335,ny,albany,12202,002500,1468,13,3,2,0,0,,,,,,,,,,,,,,,,,,,,,,,,,,Albany County,36001,51081,99474,154101,0.3314774076741877,0.6455117098526291,-0.3140343021784413,0.14551170985262907000,-0.16852259232581230000,
91124313,171000,2019-09-12,1960,1960,43.14646,-77.618085,ny,rochester,14608,009500,2226,4792,4,2,1,1,,,,,,,,,,,,,,,,,,,,,,,,,,Monroe County,36055,145661,225746,380983,0.3823293952748547,0.5925356249491447,-0.2102062296742899,0.09253562494914469000,-0.11767060472514529000,
